id,value,name,loc_type,parent,latitude,longitude
1,4001,BAGERHAT,2,40,22.3686115374,89.7394366829
2,2003,BANDARBAN,2,20,21.8071861667,92.3638878884
3,5010,BOGRA,2,50,24.8245163362,89.378751113
4,2012,BRAHAMANBARIA,2,20,23.9531285198,91.0835437119
5,2013,CHANDPUR,2,20,23.2736608699,90.7711867248
6,2015,CHITTAGONG,2,20,22.4429170749,91.8344252164
7,4018,CHUADANGA,2,40,23.6082271134,88.8480140289
8,2019,COMILLA,2,20,23.4368961326,91.0339314977
9,3026,DHAKA,2,30,23.7869632675,90.2507633651
10,5527,DINAJPUR,2,55,25.6298523379,88.7868145968
11,3029,FARIDPUR,2,30,23.4789569148,89.8388216852
12,2030,FENI,2,20,22.9993879826,91.412429611
13,5532,GAIBANDHA,2,55,25.2987635568,89.5057653515
14,6036,HABIGANJ,2,60,24.3681051061,91.4303895657
15,4539,JAMALPUR,2,45,24.9731971184,89.8462203105
16,5038,JOYPURHAT,2,50,25.0928354456,89.0830607798
17,2046,KHAGRACHHARI,2,20,23.164472676,91.9521349328
18,4047,KHULNA,2,40,22.4694182124,89.4478048475
19,3048,KISHOREGANJ,2,30,24.376189189,90.9424187474
20,2051,LAKSHMIPUR,2,20,22.8918566686,90.8560493114
21,4057,MEHERPUR,2,40,23.7941784155,88.707108155
22,3059,MUNSHIGANJ,2,30,23.5257358479,90.4172779771
23,5070,NAWABGANJ,2,50,24.7156193703,88.2639161227
24,4572,NETRAKONA,2,45,24.8705393281,90.8446083409
25,5573,NILPHAMARI,2,55,26.0246285765,88.9294585754
26,2075,NOAKHALI,2,20,22.6938242491,91.1247689838
27,2084,RANGAMATI,2,20,22.8299887643,92.2795317066
28,3086,SHARIATPUR,2,30,23.2475093977,90.4083241608
29,5088,SIRAJGANJ,2,50,24.3916419473,89.5996751142
30,6090,SUNAMGANJ,2,60,24.9385154543,91.3461588315
31,5594,THAKURGAON,2,55,25.990615655,88.3456100095
32,20,CHITTAGONG,1,-1,22.7095064381,91.7320248071
33,45,MYMENSINGH,1,-1,24.8466577208,90.3804947045
34,60,SYLHET,1,-1,24.7154916861,91.6641246977
35,404104,ABHAYNAGAR,3,4041,23.0176616247,89.4205740121
36,302602,ADABOR,3,3026,23.7701236148,90.3532785291
37,201202,AKHAURA,3,2012,23.8387591574,91.1952727133
38,302903,ALFADANGA,3,3029,23.2969386747,89.6698632549
39,200304,ALIKADAM,3,2003,21.6000729251,92.3846354269
40,100409,AMTALI,3,1004,22.0749677472,90.2026849131
41,201504,ANOWARA,3,2015,22.2017711577,91.8813611634
42,201233,ASHUGANJ,3,2012,24.0158750695,91.0184559246
43,507605,ATGHARIA,3,5076,24.1081808327,89.2821516107
44,506403,ATRAI,3,5064,24.6252252723,88.987845312
45,558503,BADARGANJ,3,5585,25.666014844,89.0563091253
46,400108,BAGERHAT SADAR,3,4001,22.6775598393,89.7633559424
47,508110,BAGHA,3,5081,24.2005253842,88.8283769532
48,208407,BAGHAI CHHARI,3,2084,23.3730881961,92.2294484107
49,603605,BAHUBAL,3,6036,24.3605625779,91.5465294319
50,304806,BAJITPUR,3,3048,24.2245958413,90.9511038821
51,201510,BAKALIA,3,2015,22.3471201544,91.8555748019
52,453907,BAKSHIGANJ,3,4539,25.2148413266,89.8526951355
53,308207,BALIA KANDI,3,3082,23.6496720571,89.5506195817
54,200314,BANDARBAN SADAR,3,2003,22.1710319972,92.2182831021
55,506915,BARAIGRAM,3,5069,24.2735377305,89.1476407194
56,100428,BARGUNA SADAR,3,1004,22.134525424,90.1089942548
57,208421,BARKAL,3,2084,22.8453066134,92.3446607422
58,605814,BARLEKHA,3,6058,24.708251457,92.1756635818
59,201506,BAYEJID BOSTAMI,3,2015,22.4194009982,91.8078674195
60,306807,BELABO,3,3068,24.098586139,90.8492804728
61,208429,BELAI CHHARI,3,2084,22.3027863809,92.4852631946
62,507616,BERA,3,5076,23.9422164898,89.6560455298
63,405015,BHERAMARA,3,4050,24.0568550602,88.9815942571
64,507018,BHOLAHAT,3,5070,24.896305497,88.2096615171
65,302606,BIMAN BANDAR THANA,3,3026,23.8475524747,90.4060438634
66,552717,BIRAL,3,5527,25.646755767,88.5476661393
67,609120,BISHWANATH,3,6091,24.8350555767,91.7293622459
68,201512,BOALKHALI,3,2015,22.3767777858,91.9690651414
69,552721,BOCHAGANJ,3,5527,25.7859137729,88.4535478651
70,201213,BRAHMANBARIA SADAR,3,2012,23.9505566843,91.1189185541
71,100921,BURHANUDDIN,3,1009,22.4829476444,90.7186618784
72,201519,CHANDGAON,3,2015,22.3875474525,91.864922269
73,302921,CHAR BHADRASAN,3,3029,23.5925372524,89.9780271881
74,508125,CHARGHAT,3,5081,24.3001012105,88.7753326289
75,207510,CHATKHIL,3,2075,23.0537958172,90.9638008697
76,201931,CHAUDDAGRAM,3,2019,23.2202524086,91.2803640099
2730,20120743701,NURPUR,5,20120743,,
77,203014,CHHAGALNAIYA,3,2030,23.0169083435,91.5071410933
78,554909,CHILMARI,3,5549,25.5662902798,89.7183279453
79,201520,CHITTAGONG PORT,3,2015,22.308315163,91.7859308962
80,401823,CHUADANGA SADAR,3,4018,23.5887732705,88.8845807984
81,201967,COMILLA ADARSHA SADAR,3,2019,23.4698889669,91.1710585453
82,609127,COMPANIGANJ,3,6091,25.0798423414,91.7734202726
83,202224,COX'S BAZAR SADAR,3,2022,21.5054078337,92.0344518532
84,308625,DAMUDYA,3,3086,23.1368610047,90.4216111168
85,201936,DAUDKANDI,3,2019,23.5025836274,90.7730967051
86,404721,DAULATPUR,3,4047,22.8751622318,89.5091557222
87,201940,DEBIDWAR,3,2019,23.5783381956,90.9978565183
88,609029,DERAI,3,6090,24.7875165242,91.3360367665
89,453915,DEWANGANJ,3,4539,25.2634764609,89.7659963841
90,506428,DHAMOIRHAT,3,5064,25.1304109514,88.8229230637
91,302614,DHAMRAI,3,3026,23.9370306992,90.1415398909
92,309325,DHANBARI,3,3093,24.6866596723,89.9333344911
93,404740,DIGHALIA,3,4047,22.9250039227,89.5600758369
94,204643,DIGHINALA,3,2046,23.3993180816,92.049825617
95,557312,DIMLA,3,5573,26.1720759733,88.9725346911
96,609033,DOWARABAZAR,3,6090,25.071801895,91.5624340799
97,107855,DUMKI,3,1078,22.4504236855,90.3719456777
98,508131,DURGAPUR,3,5081,24.466794898,88.7601806883
99,302947,FARIDPUR SADAR,3,3029,23.6047663092,89.8165109443
100,201533,FATIKCHHARI,3,2015,22.7563008863,91.7472553936
101,552738,FULBARI,3,5527,25.4702906318,88.9019320085
102,456120,FULBARIA,3,4561,24.5864093383,90.2544718412
103,558527,GANGACHARA,3,5585,25.8741557825,89.1934106388
104,405747,GANGNI,3,4057,23.8577632233,88.7711500993
105,305622,GHIOR,3,3056,23.8734663496,89.9042280093
106,507037,GOMASTAPUR,3,5070,24.8569042543,88.355144939
107,303532,GOPALGANJ SADAR,3,3035,23.0602406382,89.8486369768
108,308636,GOSAIRHAT,3,3086,23.079064602,90.4484234446
109,609141,GOWAINGHAT,3,6091,25.0832043704,91.9583467316
110,201347,HAIM CHAR,3,2013,23.0693033799,90.6265507466
111,201349,HAJIGANJ,3,2013,23.2628641047,90.8372638754
112,552747,HAKIMPUR,3,5527,25.2920325337,89.0620042413
113,456124,HALUAGHAT,3,4561,25.084649155,90.3513914039
114,201537,HATHAZARI,3,2015,22.5279014847,91.7977370919
115,201954,HOMNA,3,2019,23.6792220373,90.8127579415
116,304827,HOSSAINPUR,3,3048,24.4488566979,90.6629192447
117,609153,JAINTIAPUR,3,6091,25.056390171,92.101473473
118,557336,JALDHAKA,3,5573,26.0295141674,88.9934254232
119,453936,JAMALPUR SADAR,3,4539,24.8441046439,90.0124591006
120,404123,JHIKARGACHHA,3,4041,23.0690157086,89.054227874
121,208447,JURAI CHHARI,3,2084,22.6308278232,92.4224603769
122,201358,KACHUA,3,2013,23.3626038471,90.8817028408
123,107866,KALA PARA,3,1078,21.9356771245,90.2184276964
124,503858,KALAI,3,5038,25.0777046844,89.1978376475
125,408743,KALAROA,3,4087,22.8807320135,89.0301918004
126,303332,KALIAKAIR,3,3033,24.1032620167,90.2646122508
127,408747,KALIGANJ,3,4087,22.4472654621,89.0623690779
128,305440,KALKINI,3,3054,23.0709111554,90.2482264629
129,605856,KAMALGANJ,3,6058,24.315671907,91.8592265459
130,205133,KAMALNAGAR,3,2051,22.7675559378,90.8653175848
131,302634,KAMRANGIR CHAR,3,3026,23.7115984241,90.3719782775
132,208436,KAPTAI,3,2084,22.4597996706,92.1935010388
133,201263,KASBA,3,2012,23.763147116,91.1304345867
134,303543,KASHIANI,3,3035,23.1906924499,89.7963896637
135,558542,KAUNIA,3,5585,25.7638722027,89.3949800561
136,508850,KAZIPUR,3,5088,24.6702261669,89.6872351091
137,457247,KENDUA,3,4572,24.6773185845,90.8028473448
138,404748,KHAN JAHAN ALI,3,4047,22.9168233582,89.490444667
139,302636,KHILGAON,3,3026,23.7598498866,90.4545518566
140,201543,KHULSHI,3,2015,22.366036399,91.8001950076
141,557345,KISHOREGANJ,3,5573,25.8959451157,89.0328357411
142,303551,KOTALI PARA,3,3035,23.0110000273,90.0206708661
143,404442,KOTCHANDPUR,3,4044,23.4478821257,88.9987261613
144,201541,KOTWALI,3,2015,22.3428011099,91.832428628
145,405071,KUMARKHALI,3,4050,23.856679927,89.2095240908
146,202245,KUTUBDIA,3,2022,21.8380630012,91.8625767706
147,205143,LAKSHMIPUR SADAR,3,2051,22.9210879503,90.863402329
148,201547,LOHAGARA,3,2015,21.9861546048,92.1110210484
149,453958,MADARGANJ,3,4539,24.8818888281,89.7408678874
150,305454,MADARIPUR SADAR,3,3054,23.1938023434,90.1748038942
151,603671,MADHABPUR,3,6036,24.1203263565,91.3414863052
152,302956,MADHUKHALI,3,3029,23.5409382201,89.6120069132
4252,30932894425,HAJIPUR,5,30932894,,
153,405557,MAGURA SADAR,3,4055,23.4518584675,89.4129775194
154,506450,MAHADEBPUR,3,5064,24.9199575694,88.7647123662
155,204665,MAHALCHHARI,3,2046,22.9514761664,92.0233736159
156,204667,MANIKCHHARI,3,2046,22.8412816668,91.8190123833
157,306852,MANOHARDI,3,3068,24.1607389318,90.7304413622
158,107958,MATHBARIA,3,1079,22.2851960792,89.9505658314
159,204670,MATIRANGA,3,2046,23.104534492,91.8547611908
160,201379,MATLAB UTTAR,3,2013,23.41372384,90.6419176423
161,405787,MEHERPUR SADAR,3,4057,23.7664688354,88.6611623972
162,201553,MIRSHARAI,3,2015,22.8100138038,91.5500837322
163,558558,MITHA PUKUR,3,5585,25.5713732232,89.2611096398
164,304859,MITHAMAIN,3,3048,24.4331389166,91.1106240742
165,457263,MOHANGANJ,3,4572,24.8266827083,91.0237100616
166,508153,MOHANPUR,3,5081,24.553392622,88.6403930278
167,400156,MOLLAHAT,3,4001,22.8826614695,89.7733514201
168,405760,MUJIB NAGAR,3,4057,23.6682528508,88.6213107323
169,303558,MUKSUDPUR,3,3035,23.266661017,89.9144287908
170,201981,MURADNAGAR,3,2019,23.6776283316,90.94367245
171,603677,NABIGANJ,3,6036,24.5696647095,91.5444710311
172,201285,NABINAGAR,3,2012,23.8635288718,90.980461943
173,309376,NAGARPUR,3,3093,24.0477069458,89.8741782581
174,458970,NALITABARI,3,4589,25.1174855384,90.1835659821
175,201987,NANGALKOT,3,2019,23.1400104739,91.209205849
176,506460,NAOGAON SADAR,3,5064,24.8110299059,88.8982826315
177,306860,NARSINGDI SADAR,3,3068,23.866508064,90.7081251849
178,201290,NASIRNAGAR,3,2012,24.1822804676,91.1875381449
179,457274,NETROKONA SADAR,3,4572,24.88675632,90.7374270735
180,302663,NEW MARKET,3,3026,23.7357260432,90.3809838723
181,506469,NIAMATPUR,3,5064,24.8283911658,88.5515462041
182,557364,NILPHAMARI SADAR,3,5573,25.94158581,88.8548761495
183,507655,PABNA SADAR,3,5076,23.9937113068,89.2814443606
184,201555,PAHARTALI,3,2015,22.3595005004,91.7730047682
185,302665,PALTAN,3,3026,23.7344834784,90.413753479
186,204677,PANCHHARI,3,2046,23.3198369358,91.9101503879
187,203051,PARSHURAM,3,2030,23.20149981,91.4397332519
188,201565,PATENGA,3,2015,22.2630683572,91.7957230331
189,555270,PATGRAM,3,5552,26.3399442655,89.0239878621
190,100485,PATHARGHATA,3,1004,22.0946800317,89.9661914974
191,201561,PATIYA,3,2015,22.2920888634,91.9638001134
192,506475,PATNITALA,3,5064,25.0754166788,88.7165423464
193,202256,PEKUA,3,2022,21.8181708818,91.9528184319
194,404769,PHULTALA,3,4047,22.9565705348,89.441919263
195,558573,PIRGACHHA,3,5585,25.6651740587,89.4199940496
196,554977,RAJARHAT,3,5549,25.785974016,89.5422830349
197,208478,RAJASTHALI,3,2084,22.3785189498,92.2417028836
198,308276,RAJBARI SADAR,3,3082,23.717447405,89.6541355807
199,508185,RAJPARA,3,5081,24.3771575305,88.5672695367
200,205165,RAMGANJ,3,2051,23.0987954011,90.8725891459
201,202266,RAMU,3,2022,21.4406717552,92.1210200997
202,201570,RANGUNIA,3,2015,22.4649704257,92.0666297914
203,200389,ROWANGCHHARI,3,2003,22.2093411954,92.3398840401
204,205158,ROYPUR,3,2051,22.9998376203,90.7310041919
205,302668,SABUJBAGH,3,3026,23.7345341362,90.4423754932
206,553282,SADULLAPUR,3,5532,25.3946942833,89.4262621715
207,309385,SAKHIPUR,3,3093,24.3066740412,90.1728849082
208,201578,SANDWIP,3,2015,22.5247513782,91.4533142107
209,506486,SAPAHAR,3,5064,25.1180437264,88.5303743878
210,400177,SARANKHOLA,3,4001,22.1097389983,89.8079347671
211,453985,SARISHABARI,3,4539,24.7185852155,89.830470775
212,201582,SATKANIA,3,2015,22.105385548,92.059220871
213,305974,SERAJDIKHAN,3,3059,23.5977746839,90.3564757975
214,302674,SHAH ALI,3,3026,23.8119174298,90.3472294154
215,508190,SHAH MAKHDUM,3,5081,24.402906704,88.6084742018
216,201395,SHAHRASTI,3,2013,23.2087666512,90.9569101807
217,405585,SHALIKHA,3,4055,23.348131252,89.3585179151
218,305678,SHIBALAYA,3,3056,23.8384042264,89.8101955095
219,501094,SHIBGANJ,3,5010,25.0164350319,89.3066270445
220,508878,SIRAJGANJ SADAR,3,5088,24.4942069205,89.6885813926
221,201586,SITAKUNDA,3,2015,22.5589664323,91.6828132204
222,404785,SONADANGA,3,4047,22.8198829465,89.5421017897
223,203094,SONAGAZI,3,2030,22.8610324991,91.3954465698
224,306704,SONARGAON,3,3067,23.675646442,90.5932491611
225,303386,SREEPUR,3,3033,24.2051439709,90.4431171655
226,207585,SUBARNACHAR,3,2075,22.6201708339,91.1517048349
227,507683,SUJANAGAR,3,5076,23.8966167905,89.5127576353
228,609089,SUNAMGANJ SADAR,3,6090,25.0508266622,91.3954238073
229,553291,SUNDARGANJ,3,5532,25.5100399826,89.5638904985
230,609092,TAHIRPUR,3,6090,25.1281071007,91.1633994356
231,302690,TEJGAON,3,3026,23.7628718961,90.3916520076
232,202290,TEKNAF,3,2022,20.9924699901,92.2234568201
233,557790,TENTULIA,3,5577,26.5134768119,88.4300361307
234,404794,TEROKHADA,3,4047,22.9125540378,89.654281634
235,200395,THANCHI,3,2003,21.637248346,92.5308964802
236,305994,TONGIBARI,3,3059,23.4760166102,90.4526728414
237,302693,TURAG,3,3026,23.8599527099,90.366750219
238,202294,UKHIA,3,2022,21.2292963624,92.1159591257
239,508894,ULLAH PARA,3,5088,24.3273597055,89.5181068965
240,30599411,ABDULLAHPUR,4,305994,23.5428604143,90.4703818507
241,20153311,ABDULLAPUR,4,201533,22.5709765027,91.8693575644
242,40507916,ABDULPUR,4,405079,23.7456840645,89.1075128987
243,55273013,ABDULPUR,4,552730,25.6653463064,88.7926525117
244,45617213,ACHARGAON,4,456172,24.5494291375,90.6964433767
245,45612011,ACHIM PATULI,4,456120,24.5372919264,90.2938394233
246,10783810,ADABARIA,4,107838,22.3675894714,90.452077189
247,60367116,ADAIR,4,603671,24.0818571165,91.2997631299
248,50100613,ADAM DIGHI,4,501006,24.8064559139,89.0419853964
249,30480211,ADAMPUR,4,304802,24.3439014509,91.1784298841
250,60585617,ADAMPUR,4,605856,24.248527615,91.8930446742
251,45395811,ADARBHITA,4,453958,24.839493901,89.7780318238
252,20190911,ADDA,4,201909,23.3352100797,90.9801682412
253,20198711,ADRA,4,201987,23.1413682108,91.1480005219
254,45396117,ADRA,4,453961,24.9454280191,89.8237414803
255,10424331,ADRABUNIA,4,104243,22.481513538,90.1572045436
256,60908910,AFTABNAGAR,4,609089,25.0668593541,91.4403066171
257,20190918,AGANAGAR,4,201909,23.4232616879,91.0713771829
258,30263811,AGANAGAR,4,302638,23.7003932604,90.4022138536
259,40878213,AGARDARI,4,408782,22.7586056952,89.0295730682
260,50768317,AHAMMEDPUR,4,507683,23.9414112507,89.569117127
261,50381399,PAURASHAVA,4,503813,24.9636184373,89.0278474065
262,55273825,ALADIPUR,4,552738,25.4839601884,88.9101223227
263,55852716,ALAM BIDITAR,4,558527,25.9055348906,89.1367190384
264,55859225,ALAMPUR,4,558592,25.7768046194,88.9684726223
265,30290310,ALFADANGA,4,302903,23.2751518108,89.7231332048
266,30291013,ALGI,4,302910,23.3681751737,89.950059717
267,20224513,ALI AKBAR DEIL,4,202245,21.763031501,91.8458179006
268,55274713,ALIHAT,4,552747,25.2745457997,89.1096975123
269,20038919,ALIKHONG,4,200389,22.2506394993,92.3887291575
270,10066213,ALIMABAD,4,100662,22.7366184974,90.5501093824
271,60585619,ALINAGAR,4,605856,24.3380103452,91.8852548952
272,60911711,ALINAGAR,4,609117,24.8849664022,92.1009236588
273,10785210,ALIPUR,4,107852,22.2568361929,90.509917913
274,40878216,ALIPUR,4,408782,22.6809815994,89.0153304238
275,30675820,ALIRTEK,4,306758,23.5793403951,90.4787480043
276,30935721,ALOKDIA,4,309357,24.5698848907,90.0271117622
277,40182311,ALOKDIA,4,401823,23.6575754706,88.8182274926
278,55273015,ALOKDIHI,4,552730,25.767857365,88.8075072084
279,55276015,ALOKJHARI,4,552760,25.9577640621,88.7326876717
280,50647517,AMAIR,4,506475,25.0268359451,88.8721820399
281,20157811,AMANULLAH,4,201578,22.5589239218,91.4455952468
282,55777311,AMARKHANA,4,557773,26.4397667595,88.5922051345
283,40506317,AMBARIA,4,405063,23.8745020479,89.3393329345
284,20758313,AMBARNAGAR,4,207583,22.9989149501,91.1709252282
285,30548013,AMGRAM,4,305480,23.1538572994,90.0459001192
286,20154710,AMIRABAD,4,201547,22.0259985488,92.1024901742
287,45619413,AMIRABARI,4,456194,24.4758708828,90.4034368006
288,20304113,AMJADHAT,4,203041,23.1218298599,91.4868354012
289,40578719,AMJHUPI,4,405787,23.7696576271,88.6803744888
290,30680711,AMLABA,4,306807,24.0715384802,90.8375625986
291,10787613,AMRAGACHHIA,4,107876,22.3972552025,90.2169518365
292,10794715,AMRAJURI,4,107947,22.6461847584,90.0675101774
293,50108516,AMROOL,4,501085,24.7351817019,89.4457909788
294,45612417,AMTAIL,4,456124,25.0163785836,90.3310155443
295,10040913,AMTALI,4,100409,22.0753095782,90.2471446695
296,30936615,ANAITARA,4,309366,24.0681227512,90.0089051445
297,20304127,ANANDAPUR,4,203041,23.0716856508,91.4298848371
298,55490613,ANDHARI JHAR,4,554906,26.0578357713,89.7073899191
299,40185519,ANDULBARIA,4,401855,23.4787409204,88.9063999875
300,10785519,ANGARIA,4,107855,22.480884398,90.3755748464
301,20150415,ANOWARA,4,201504,22.2178111216,91.9044590949
302,40870415,ANULIA,4,408704,22.43211284,89.2274931079
303,45398510,AONA,4,453985,24.6529521803,89.8250888458
304,30482713,ARAIBARIA,4,304827,24.4117318772,90.6620309209
305,20123312,ARAISIDHA,4,201233,24.0089227398,91.0039857354
837,30939541,GALA,4,309395,24.2955645409,89.9162160536
306,40472110,ARANGHATA,4,404721,22.8729090124,89.4999169784
307,50811021,ARANI,4,508110,24.2752514363,88.8697730375
308,50811000,ARANI PAURASHAVA,4,508110,24.2894812834,88.8658729735
309,30935724,ARANKHOLA,4,309357,24.6825840569,90.0752827091
310,50108517,ARIA,4,501085,24.7291377149,89.3810534615
311,50694457,ARJUNPUR BOROMHATI,4,506944,24.1832036671,89.0410789881
312,10040915,ARPANGASHIA,4,100409,22.0938278378,90.1874763676
313,30861412,ARSHI NAGAR UNION,4,308614,23.1775918785,90.5345569995
314,60588315,ASHIDRON,4,605883,24.2684920844,91.7266015595
315,20132218,ASHIKATI,4,201322,23.2730433753,90.7093495946
316,45615225,ASHTADHAR,4,456152,24.863827473,90.2272954377
317,20123314,ASHUGANJ,4,201233,24.0220202337,91.0202777776
318,55276416,ASKARPUR,4,552764,25.5261997226,88.6197022445
319,20192747,ATBAR PUR,4,201927,23.4589352341,91.0082921417
320,60908623,ATGAON,4,609086,24.7482710411,91.1969494491
321,50760599,PAURASHAVA,4,507605,24.1149925475,89.2381970888
322,10040923,ATHARAGASHIA,4,100409,22.2086806222,90.3350406037
323,40555721,ATHARAKHADA,4,405557,23.5309291548,89.4156604654
324,30932311,ATIA,4,309323,24.1615475736,89.9192505554
325,40015617,ATJURI,4,400156,22.8958933381,89.8152030053
326,30598411,ATPARA,4,305984,23.5446807769,90.3177889804
327,40878611,ATULIA,4,408786,22.3286971915,89.1843080221
328,50811220,AUCH PARA,4,508112,24.6047764582,88.7043154314
329,40657611,AURIA,4,406576,23.1776057595,89.5505596099
330,30935728,AUSNARA,4,309357,24.5812647351,90.0980178891
331,30480223,AUSTAGRAM,4,304802,24.2878117539,91.1099525068
332,30599423,AUTSHAHI,4,305994,23.5194687803,90.4292964431
333,50387431,AYMARASULPUR,4,503874,25.1725030231,88.9895758775
334,30562811,AZIMNAGAR,4,305628,23.6558068114,89.9857837737
335,55271713,AZIMPUR,4,552717,25.7260969703,88.6034553373
336,20464315,BABUCHHARA,4,204643,23.5011699723,92.0318118844
337,30827375,PANGSHA,4,308273,23.7851134244,89.3903190082
338,55948615,BACHOR,4,559486,25.9147137998,88.2928237722
339,50640621,BADALGACHHI,4,506406,24.9600448895,88.8865487362
340,20751017,BADALKUT,4,207510,23.1064478887,90.9651056328
341,60360227,BADALPUR,4,603602,24.6036380264,91.324228529
342,55850316,BADARGANJ,4,558503,25.6417960897,89.0767305642
343,10789511,BADARPUR,4,107895,22.3991363246,90.3203366528
344,30260413,BADDA,4,302604,23.776980778,90.4342711144
345,50819427,BADHAIR,4,508194,24.633114396,88.4562750574
346,40419013,BAGACHRA,4,404190,22.9767528644,88.9626971564
347,20309419,BAGADANA,4,203094,22.915673384,91.3691382152
348,45390711,BAGAR CHAR,4,453907,25.2642359158,89.8306498157
349,50690919,BAGATI PARA,4,506909,24.3335460388,88.9470606451
350,40010899,PAURASHAVA,4,400108,22.6623454674,89.7877119094
351,30687621,BAGHABA,4,306876,24.0060363904,90.7677389978
352,20132222,BAGHADI,4,201322,23.2121576192,90.6991162992
353,45611610,BAGHBER,4,456116,25.0950128221,90.4550605836
354,30598413,BAGHRA,4,305984,23.5349056994,90.1899196887
355,40555725,BAGIA,4,405557,23.4869615712,89.4767945197
356,20157411,BAGOAN,4,201574,22.4376981856,91.9423785939
357,40507116,BAGULAT,4,405071,23.8137388602,89.171992842
358,30827316,BAHADURPUR,4,308273,23.8748318411,89.3776916373
359,40419017,BAHADURPUR,4,404190,23.0876388297,88.9024749848
360,40501513,BAHADURPUR,4,405015,24.1124734807,88.9548682688
361,40013410,BAHIRDIA MANSA,4,400134,22.7763098633,89.6788600016
362,30670424,BAIDYER BAZAR,4,306704,23.6641671145,90.620618245
363,45619415,BAILAR,4,456194,24.6341865259,90.3957765067
364,20151813,BAILTALI,4,201518,22.1567141421,92.0065477911
365,10061021,BAISARI PARA,4,100610,22.7917591654,90.1350981264
366,20197413,BAISHGAON,4,201974,23.1424066319,91.0344473667
367,45898811,BAJITKHILA,4,458988,25.058600966,90.0374886307
368,30548028,BAJITPUR,4,305480,23.1642642357,90.0799211422
369,40471710,BAJUA,4,404717,22.5602232994,89.5425124871
370,50811022,BAJUBAGHA,4,508110,24.2064224163,88.8532946806
371,20134975,DAKSHIN RAJARGAON,4,201349,23.2716051277,90.7799702548
372,20198734,BAKSHAGANJ,4,201987,23.0733723672,91.2525832598
373,30266213,BAKSHNAGAR,4,302662,23.6404396548,90.1748032967
374,50815313,BAKSHIMAIL,4,508153,24.538045854,88.6534541186
375,10785722,BAKULBARIA,4,107857,22.3123525526,90.48366815
376,55733613,BALAGRAM,4,557336,26.0522508387,89.0062025371
377,45898813,BALAIR CHAR,4,458988,24.948612192,90.0179419294
378,45724713,BALAISHIMUL,4,457247,24.7243987404,90.8097517729
379,20199410,BALARAMPUR,4,201994,23.6100296232,90.8126691007
380,20132227,UTTAR BALIA,4,201322,23.1815934655,90.6841331854
381,45618111,BALIA,4,456181,24.9802672844,90.4389686231
382,40471223,BALIADANGA,4,404712,22.7193443673,89.5470279884
383,30820719,BALIAKANDI,4,308207,23.6273104529,89.5370343116
384,30567019,BALIATI,4,305670,23.9948445319,90.0266852121
385,50706618,BALIDANGA,4,507066,24.6361871926,88.274718407
386,30544012,BALIGRAM,4,305440,23.1123145652,90.1851926523
387,60909210,BALIJURI,4,609092,25.1047824215,91.2362738554
388,55496111,BALLABHER KHAS,4,554961,25.9557846976,89.7894976284
389,55322414,BALLAMJHAR,4,553224,25.3390832051,89.5005200231
390,50109510,BALUA,4,501095,25.0249383287,89.4686557394
391,30592410,BALUAKANDI,4,305924,23.6021626875,90.640153059
392,50640631,BALUBHARA,4,506406,24.9138716861,88.9090958111
393,20848727,BALUKHALI,4,208487,22.6155451283,92.2714427974
394,60366813,BAMAI,4,603668,24.2975456131,91.2574796274
395,55329111,BAMANDANGA,4,553291,25.5613389581,89.4370559685
396,40574710,BAMANDI,4,405747,23.8887505234,88.7945123744
397,20221612,BAMO BILCHARI,4,202216,21.8114694524,92.190048963
398,10069410,BAMRAIL,4,100694,22.8697940942,90.2555448869
399,30267222,BANAGRAM,4,302672,23.8159901726,90.2934534874
400,40410919,BANDABILLA,4,404109,23.2998506323,89.2838843957
401,20031499,PAURASHAVA,4,200314,22.2079357959,92.2068300527
402,30548711,BANDARKHOLA,4,305487,23.4417962788,90.1290660238
403,50818213,BANESHWAR,4,508182,24.3742300844,88.7758833269
404,45896717,BANESHWARDI,4,458967,24.9548048271,90.150918514
405,20514313,BANGAKHA,4,205143,22.9581353166,90.8753193927
406,30480235,BANGAL PARA,4,304802,24.2411690577,91.0871306816
407,55490638,BANGASONAHAT,4,554906,26.0974431402,89.7464048962
408,20198717,BANGODDA,4,201987,23.2261793596,91.2316854027
409,30932525,BANIAJAN,4,309325,24.7289113312,89.9254632833
410,30827614,BANIBAHA,4,308276,23.6925107747,89.6197167334
411,40471713,BANISHANTA,4,404717,22.470037339,89.5683449525
412,10785231,BANSHBARIA,4,107852,22.3021634407,90.6024878464
413,45393613,BANSHCHARA,4,453936,24.812968594,90.0773450649
414,30686416,BANSHGARI,4,306864,23.910655567,90.8912675536
415,20150899,BANSHKHALI PAURASHAVA,4,201508,22.0051376198,91.9658180712
416,40017311,BANSHTALI,4,400173,22.5758526613,89.6853043391
417,10789727,BARA BAISDIA,4,107897,21.913208932,90.3582459379
418,40443310,BARA BAZAR,4,404433,23.3112144395,89.168511738
419,30685221,BARA CHAPA,4,306852,24.1831776589,90.7710325421
420,60915913,BARA CHATUL,4,609159,25.0261004814,92.1943187902
421,50881113,BARA DHUL,4,508811,24.286241966,89.7504072667
422,20842131,BARA HARINA,4,208421,23.0080168803,92.3449774273
423,55855826,BARA HAZRATPUR,4,558558,25.5434708023,89.3227123985
424,10063613,BARA JALIA,4,100636,22.912763594,90.5134809934
425,20192723,BARA KARAI,4,201927,23.3944584552,90.9456460258
426,45724011,BARA KHARPAN,4,457240,25.0248167704,90.9159996154
427,10099119,BARA MALANCHA,4,100991,22.5532504719,90.8740184411
428,20194010,BARA SHALGHAR,4,201940,23.6811665017,91.0359836974
429,55772512,BARA SHASHI,4,557725,26.2483247302,88.7076663591
430,55525520,BARABARI,4,555255,25.8776118736,89.5269918339
431,55852719,BARABIL,4,558527,25.8535473723,89.1772361665
432,20158619,BARAKUNDA,4,201586,22.5737516273,91.6726404705
433,30484213,BARAGHARIA,4,304842,24.4513496695,90.8988972906
434,50706619,BARAGHARIA,4,507066,24.6115296607,88.249349047
435,45613113,BARAHIT,4,456131,24.6461295604,90.5730886187
436,50691521,BARAIGRAM,4,506915,24.3149592145,89.1972561576
437,60913136,BARAIKANDI,4,609131,24.8714622523,91.8591500027
438,30598420,BARAIKHALI,4,305984,23.5943477565,90.2393529103
439,20128581,BARAIL,4,201285,23.9474884837,91.0156709069
440,60361131,BARAIURI,4,603611,24.5242074054,91.4432636703
441,20197512,BARAKANDA,4,201975,23.6142788708,90.6772238787
442,40507925,BARAKHADA,4,405079,23.9187287139,89.1006405708
443,55523315,BARAKHATA,4,555233,26.1996541812,89.1192979947
444,45720923,BARHATTA,4,457209,24.8773330806,90.8977109407
445,30333025,BARIA,4,303330,23.9841303889,90.4786253133
446,20158628,BARIADYALA,4,201586,22.6690847477,91.6363914429
447,55326713,BARISAL,4,553267,25.2498643231,89.3863947479
448,30333613,BARISHABA,4,303336,24.191247544,90.6424217564
449,20842147,BARKAL,4,208421,22.7916297174,92.3097847266
450,60581499,PAURASHAVA,4,605814,24.6874242777,92.1994279671
451,30266227,BARRAH,4,302662,23.668958379,90.1914504651
452,30597413,BASAIL,4,305974,23.6155937596,90.3606134121
453,10424017,BASANDA,4,104240,22.6710234122,90.2123603637
454,30827629,BASANTAPUR,4,308276,23.6375567537,89.6975518994
455,40410915,BASUARI,4,404109,23.1675174741,89.3486035219
456,50813422,BASUDEBPUR,4,508134,24.5266396038,88.3229530824
457,20754723,BATAIYA,4,207547,22.8662309067,91.2178814381
458,10063231,BATAJORE,4,100632,22.9153568456,90.2620945137
5132,30934794762,PAUJAN,5,30934794,,
459,50386119,BARATARA,4,503861,25.0845058679,89.1338728167
460,40471235,BATIAGHATA,4,404712,22.7363200043,89.4938854748
461,20466719,BATNATALI,4,204667,22.8748414523,91.8032999457
462,30484917,BAULAI,4,304849,24.4181990681,90.8323439937
463,30592421,BAUSIA,4,305924,23.5386972498,90.6696342635
464,20126331,BAYEK,4,201263,23.6743403815,91.1721097521
465,30548715,BAYRATALA,4,305487,23.2939621505,90.1413897853
466,60911717,BEANI BAZAR,4,609117,24.8390006878,92.1413193254
467,20750724,BEGUMGANJ,4,207507,22.9319232032,91.083706523
468,20467035,GUIMARA,4,204670,22.9908743524,91.89534532
469,20842923,BELAI CHHARI,4,208429,22.4606770525,92.3370917981
470,55277716,BELAICHANDI,4,552777,25.7255749296,88.8997386947
471,40180713,BELGACHHI,4,401807,23.7196382914,88.9422629152
472,50881127,BELKUCHI,4,508811,24.3189550477,89.7347935348
473,50818227,BELPUKURIA,4,508182,24.3773747146,88.7329776157
474,40010825,BEMARTA,4,400108,22.6350883988,89.8169711073
475,40419025,BENAPOLE,4,404190,23.0469813077,88.9141925672
476,50761699,PAURASHAVA,4,507616,24.0677001579,89.6280375866
477,30260419,BERAID,4,302604,23.8094541384,90.465568171
478,55496118,BERUBARI,4,554961,25.9546175624,89.7486338809
479,45617215,BETAGAIR,4,456172,24.5480811252,90.5491276252
480,10044711,BETAGI,4,100447,22.4218695887,90.1852841618
481,20157015,BETAGI,4,201570,22.4303752651,91.9954787938
482,55852721,BETGARI,4,558527,25.8625113599,89.1264599176
483,30564611,BETILA MITARA,4,305646,23.8243549547,90.0419323378
484,55326719,BETKAPA,4,553267,25.2928511735,89.4467951222
485,45898815,BETMARI GHUGHURAKANDI,4,458988,24.9227686353,90.0464690891
486,10795825,BETMORE RAJPARA,4,107958,22.2753591827,89.8993237309
487,20514315,BHABANIGANJ,4,205143,22.8649824451,90.8483127413
488,45612029,BHABANIPUR,4,456120,24.4980445031,90.2840984401
489,50646921,BHABICHA,4,506469,24.8556185546,88.6181901729
490,30355810,BHABRASUR,4,303558,23.2831641986,89.8919433862
491,30598427,BHAGYAKUL,4,305984,23.505375638,90.2084266537
492,20464915,BHAIBONCHHARA,4,204649,23.1916920209,91.9607163674
493,30481199,PAURASHAVA,4,304811,24.0544121126,90.9857637019
494,55523319,BHALAGURI,4,555233,26.0526125074,89.2469765018
495,40473013,BHANDAR PARA,4,404730,22.7567510276,89.445356378
496,55271719,BHANDARA,4,552717,25.6237041142,88.4762331119
497,50881140,BHANGABARI,4,508811,24.3069791201,89.6719906178
498,40180723,BHANGABARIA,4,401807,23.7990293738,88.8492975315
499,30937614,BHARA,4,309376,24.1298020401,89.8339349844
500,45611317,BHARADOBA,4,456113,24.435362545,90.4015986604
501,50644713,BHARSO,4,506447,24.7313611977,88.6382440571
502,20195420,BHASANIA,4,201954,23.6497997955,90.8502185066
503,30298419,BHASHANCHAR,4,302984,23.4943412519,89.9995079129
504,30936639,BHATGRAM,4,309366,24.093143567,90.0668408913
505,55328217,BHATGRAM,4,553282,25.3613363031,89.4219709315
506,60902917,BHATI PARA,4,609029,24.8666261002,91.2922583935
507,20158638,BHATIARI,4,201586,22.4256345523,91.7556289139
508,20156119,PATIYA,4,201561,22.2800260852,91.9689687921
509,45898820,BHATSALA,4,458988,24.9838354212,90.0487222206
510,55945140,BHATURIA,4,559451,25.8206899492,88.2038779763
511,50108111,BHELABARI,4,501081,24.8063471184,89.5473263967
512,55520211,BHELABARI,4,555202,25.9760339218,89.3913213449
513,55857628,BHENDABARI,4,558576,25.493360022,89.2197187248
514,50645015,BHIMPUR,4,506450,24.8477153526,88.8429242103
515,10791423,BHITABARIA,4,107914,22.5178862575,90.0489662054
516,55495219,BHOGDANGA,4,554952,25.8674577302,89.6807975125
517,55779040,BHOJANPUR DEBNAGAR,4,557790,26.463555279,88.5065645623
518,30866511,BHOJESHWAR,4,308665,23.2394692951,90.3849417156
519,40416110,BHOJGATI,4,404161,23.0733435184,89.2351885306
520,40017317,BHOJPATIA,4,400173,22.5296431728,89.7190776453
521,55523917,BHOTEMARI,4,555239,25.9876637465,89.1596768512
522,30931999,PAURASHAVA,4,309319,24.4697466173,89.8625779613
523,60586510,BHUKSHIMAIL,4,605865,24.5851260403,92.0337025497
524,50767217,BHULBARIA,4,507672,24.0665719909,89.4463462357
525,60588319,BHUNABIR,4,605883,24.3329348792,91.6552389062
526,55490619,BHURUNGAMARI,4,554906,26.1172294769,89.6528853393
527,20842163,BHUSHAN CHHARA,4,208421,22.8540825863,92.3813716707
528,10066231,BIDYANANDAPUR,4,100662,22.8376218229,90.4253677587
529,30866518,BIJHARI,4,308665,23.2321614667,90.4162661749
530,20193335,BIJOYPUR,4,201933,23.419823828,91.1436735938
531,50640642,BILASBARI,4,506406,24.9110425723,88.9705780097
532,30869429,BILASPUR,4,308694,23.3330476725,90.3710984247
533,50762213,BILCHALAN UNION,4,507622,24.2488975707,89.303661259
534,20758725,BINODPUR,4,207587,22.8377446584,91.0805964395
535,30680725,BINYABAID,4,306807,24.14201037,90.8346952207
536,50695523,BIPRA BELGHARIA,4,506955,24.4682662168,88.929015917
537,40555723,BIRAIL PALITA,4,405557,23.3541363116,89.4937336242
538,30598433,BIRTARA,4,305984,23.5762962574,90.3244501295
539,30670226,BISHNANDI,4,306702,23.7612129023,90.7161572841
540,20132231,BISHNUPUR,4,201322,23.3073084496,90.668306086
541,40010834,BISHNUPUR,4,400108,22.7291720186,89.8075504066
542,40874715,BISHNUPUR,4,408747,22.4296662223,89.1143077944
543,50644720,BISHNUPUR,4,506447,24.6900604075,88.8005728294
544,55850318,BISHNUPUR,4,558503,25.6153674551,89.0414186589
545,20128522,BITGHAR (TIARA),4,201285,23.8417543183,91.0403507867
546,55322421,BOALI,4,553224,25.2969969486,89.5490603865
547,40503920,BOALIA,4,405039,23.9565906721,88.8329749672
548,60910813,BOALJUR BAZAR,4,609108,24.6760898425,91.7724718808
549,20845840,BAGHACHATAR,4,208458,22.9407842108,92.2225521256
550,50102099,PAURASHAVA,4,501020,24.8433914682,89.3738130421
551,45612322,BOKAINAGAR,4,456123,24.7339261607,90.6064567312
552,20129017,BOLAKOT,4,201290,24.1990253405,91.1158177004
553,55731528,BORAGARI,4,557315,26.1320924104,88.8305960482
554,40652814,BORANAL ELIASABAD,4,406528,22.994428531,89.6303028028
555,45615231,BORAR CHAR,4,456152,24.8648286928,90.2829238858
556,30353211,BORASI,4,303532,22.9824461117,89.8378717562
557,50886113,BRAHMAGACHHA,4,508861,24.5248016836,89.5864192069
558,20191518,BRAHMAN PARA,4,201915,23.6217745029,91.1120406682
559,30670229,BRAHMANDI,4,306702,23.7719191067,90.6162429228
560,20121394,UTTAR SHUHILPUR,4,201213,24.0416657037,91.1120477235
561,10041947,BUKABUNIA,4,100419,22.3084741719,90.0522097035
562,55274319,BULAKIPUR,4,552743,25.3316209179,89.2047547666
563,55499422,BURABURI,4,554994,25.7178929697,89.7063877233
564,50106731,BURAIL,4,501067,24.6484485132,89.3061605812
565,10042838,BURIR CHAR,4,100428,22.1404814189,90.1669750881
566,20153710,BURISH CHAR,4,201537,22.4156521113,91.8702640964
567,20150447,BURUMCHHARA,4,201504,22.1767846761,91.8829137063
568,30561028,CHAK MIRPUR,4,305610,23.9540671314,89.8379202217
569,20221699,PAURASHAVA,4,202216,21.764088428,92.073337034
570,50761615,CHAKLA,4,507616,24.0136032146,89.6261301868
571,30685227,CHALAK CHAR,4,306852,24.172317065,90.7231671312
572,40471799,CHALNA PAURASHAVA,4,404717,22.5810975753,89.5028657236
573,50108119,CHALUABARI,4,501081,25.0034370686,89.6227410894
574,60903223,CHAMARDANI,4,609032,25.0495032263,91.041499323
575,20150818,CHAMBAL,4,201508,21.9613805994,91.9791049188
576,50100627,CHAMPAPUR,4,501006,24.7498480073,89.1138086427
577,50886119,CHANDAIKONA,4,508861,24.5271345275,89.4997101673
578,50646931,CHANDAN NAGAR,4,506469,24.9200568138,88.618094388
579,30827632,CHANDANI,4,308276,23.7680465307,89.5740078324
580,20197519,CHANDANPUR,4,201975,23.6531120994,90.6825593595
581,30487919,CHANDI PASHA,4,304879,24.3598017881,90.7248263744
582,60587421,CHANDIGHAT,4,605874,24.4902146495,91.7839571259
583,20516523,CHANDIPUR,4,205165,23.0777598293,90.8182580488
584,55277717,CHANDIPUR,4,552777,25.621544872,88.889365766
585,55734534,CHANDKHANA,4,557345,25.8430276629,89.0324106555
586,10060327,CHANDPASHA,4,100603,22.7837422974,90.3458920129
587,40015823,CHANDPI,4,400158,22.4709177759,89.6248389355
588,10099157,CHANDPUR,4,100991,22.4116513945,90.8348819265
589,30484528,CHANDPUR,4,304845,24.2986844512,90.850582747
590,40441421,CHANDPUR,4,404414,23.5952533118,89.1373492844
591,20132254,CHANDRA,4,201322,23.145253367,90.6660555764
592,30353215,CHANDRA DIGHALIA,4,303532,23.0714417182,89.7789496271
593,10065133,CHANDRA MOHAN,4,100651,22.6548274251,90.5002092866
594,45896719,CHANDRAKONA,4,458967,24.9187700325,90.144403299
595,55736418,CHAORA BARGACHHA,4,557364,26.0201313883,88.788247064
596,20198122,CHAPITALA,4,201981,23.6946732516,90.9729623714
597,20517323,CHAR ALEXANDAR,4,205173,22.6708773313,90.8923265992
598,20517331,CHAR ALGI,4,205173,22.6590390087,90.9428889611
599,50706620,CHAR ANUPNAGAR,4,507066,24.5332846227,88.2975296089
600,45391529,CHAR AOMKHAOA,4,453915,25.3418798234,89.7570358936
601,30686430,CHAR ARALIA,4,306864,23.9001449421,90.7664105736
602,50813425,CHAR ASHARIADAHA,4,508134,24.4057820376,88.3537260955
603,40011415,CHAR BANIARI,4,400114,22.7789005959,89.8982431488
604,20517339,CHAR BEDAMA,4,205173,22.7018073679,90.9407755168
605,30861415,CHAR BHAGA,4,308614,23.2667252306,90.5044573169
606,55490647,CHAR BHURUNGAMARI,4,554906,26.1367352089,89.7241893026
607,10785737,CHAR BISWAS,4,107857,22.014566084,90.5383108642
608,20123326,CHAR CHARTALA,4,201233,24.0149315041,90.984119312
609,20758533,CHAR CLERK,4,207585,22.5917481629,91.2487036276
915,50763363,HADAL,4,507633,24.1228181128,89.4065543079
610,30544025,CHAR DAULAT KHAN,4,305440,23.0433320749,90.2792324408
611,10066247,CHAR EKKARIA,4,100662,22.8591995989,90.5179712884
612,20517355,CHAR GAZI,4,205173,22.5937502761,91.0074720341
613,50885015,CHAR GIRISH,4,508850,24.6947744799,89.7549404701
614,30292138,CHAR HARIRAMPUR,4,302921,23.6150211725,89.9693721615
615,45615233,CHAR ISHWARDIA,4,456152,24.7695516608,90.4316978104
616,20758535,CHAR JABBAR,4,207585,22.6966070842,91.0672181284
617,30292157,CHAR JHAUKANDA,4,302921,23.5953620973,90.0273575752
618,20513363,CHAR KADIRA,4,205133,22.751583077,90.9412589237
619,10092528,CHAR KALMI,4,100925,22.0927560771,90.6442475253
620,10092919,CHAR KHALIFA,4,100929,22.600603242,90.7118998128
621,20753638,CHAR KING,4,207536,22.3686526194,91.0273788199
622,30294723,CHAR MADHABDIA,4,302947,23.6677505446,89.8121084796
623,20309447,CHAR MAJLISHPUR,4,203094,22.9331412112,91.3587138536
624,30685240,CHAR MANDALIA,4,306852,24.2286443411,90.7650524619
625,20515847,CHAR MOHANA,4,205158,23.0018245853,90.7361278464
626,10065151,CHAR MONAI,4,100651,22.7375116287,90.4486357431
627,10789734,CHAR MONTAZ,4,107897,21.8988538571,90.5342672963
628,45615240,CHAR NILAKSHMIA,4,456152,24.7514236276,90.4719155059
629,20156127,CHAR PATHARGHATA,4,201561,22.3130364475,91.8345319512
630,45392923,CHAR PUTIMARI,4,453929,25.0431074227,89.8867231045
631,20517387,CHAR RAMIZ,4,205173,22.6311735382,90.9743357868
632,10091821,CHAR SAMAIA,4,100918,22.6555122729,90.6090501229
633,30686437,CHAR SUBUDDI,4,306864,23.9406856866,90.829816097
634,50812539,CHARGHAT,4,508125,24.2527867117,88.7707190928
635,60915327,CHARIKATA,4,609153,25.088168318,92.1801769057
636,30561038,CHAR KATARI,4,305610,24.0067945837,89.7552099843
637,60902919,CHARNAR CHAR,4,609029,24.7708558452,91.2407016923
638,20758331,CHASHIRHAT,4,207583,23.0656426122,91.1174121227
639,20193123,CHAUDDAGRAM,4,201931,23.2279268454,91.3186756068
640,20193199,PAURASHAVA,4,201931,23.2380403956,91.3039682597
641,30483326,CHAUGANGA,4,304833,24.5113641379,90.9629618076
642,50102719,CHAUKIBARI,4,501027,24.6266881357,89.5250819615
643,40555727,CHAULIA,4,405557,23.4532954628,89.4627991752
644,20750799,PAURASHAVA,4,207507,22.9430246802,91.1072119364
645,10424347,CHENCHRI RAMPUR,4,104243,22.425834223,90.0677957622
646,20193119,CHEORA,4,201931,23.1487175945,91.2956019351
647,50645028,CHERAGPUR,4,506450,24.8995779768,88.8388739755
648,50762211,CHHAIKHOLA,4,507622,24.2981826238,89.3027780912
649,20198131,CHHALIAKANDI,4,201981,23.5826100047,90.8730012643
650,55329125,CHHAPARHATI,4,553291,25.4719083365,89.5516734404
651,60902313,CHHATAK,4,609023,25.0003717303,91.6237868314
652,40509436,CHHATIAN,4,405094,23.8798991809,88.9994214944
653,20750728,CHHAYANI,4,207507,22.8973973514,91.0099189058
654,30861425,CHHAYGAON,4,308614,23.1931101612,90.4057685881
655,45720947,CHHIRAM,4,457209,24.9511803559,90.9410015025
656,30866938,CHIKANDI,4,308669,23.2641288458,90.2930306182
657,20157418,CHIKDAIR,4,201574,22.5451963852,91.8812444158
658,40503927,CHILMARI,4,405039,24.1211544634,88.7744116911
659,45392931,CHINADULLI,4,453929,25.0709301377,89.7222067999
660,10794731,CHIRA PARA PARSATURIA,4,107947,22.5935155236,90.0483249063
661,30866947,CHITALIA,4,308669,23.193491748,90.297210487
662,20305123,CHITHALIA,4,203051,23.1941372842,91.4109854366
663,50108519,CHOPINAGAR,4,501085,24.7611434122,89.4285487089
664,60362619,CHUNARUGHAT,4,603626,24.2375825873,91.5085653686
665,55275615,DABAR,4,552756,25.851242288,88.5331711357
666,20157425,DABUA,4,201574,22.5630718036,91.9193850642
667,30291830,DADPUR,4,302918,23.450299667,89.7127087165
668,55329131,DAHABANDA,4,553291,25.5393605538,89.5319707913
669,55527019,DAHAGRAM,4,555270,26.3019519308,88.9473444992
670,50708817,DAIPUKURIA,4,507088,24.8179079799,88.1974706076
671,45611334,DAKATIA,4,456113,24.3786603877,90.2749300417
672,20156191,DAKHIN D. BHURSHI,4,201561,22.3163607519,91.9732795184
673,60903221,DAKSHIN  SUKHAIRRAJAPUR,4,609032,24.882106497,91.1206036147
674,20134723,DAKSHIN ALGI DURGAPUR,4,201347,23.0782078333,90.6649603928
675,40475322,DAKSHIN BEDKASHI,4,404753,22.2404922027,89.3219370828
676,60903235,DAKSHIN BONGSHIKUNDA,4,609032,25.1243359869,91.0174101736
677,20194041,DAKSHIN DHAMTI,4,201940,23.5144063952,90.9810369775
678,20224540,DAKSHIN DHURUNG,4,202245,21.8700901737,91.8572788417
679,20193634,DAKSHIN ELLIOTGANJ,4,201936,23.516983521,90.8512508834
680,20135831,DAKSHIN GOHAT,4,201358,23.299129528,90.935294646
681,20197445,DAKSHIN JHALAM,4,201974,23.173858877,91.0293584593
682,10092985,DAKSHIN JOYNAGAR,4,100929,22.5627948078,90.6881984184
683,60902342,DAKSHIN KHURMA,4,609023,24.9293817326,91.5999691303
684,20153723,DAKSHIN MADRASHA,4,201537,22.4404905899,91.8495917632
685,20134571,DAKSHIN PAIK PARA,4,201345,23.1563711379,90.7699232384
686,60361118,DAKSHIN PURBA BANIYACHANG,4,603611,24.4942844439,91.3815539007
687,20139582,DAKSHIN ROYSREE,4,201395,23.2076050861,90.9962773123
688,20134583,DAKSHIN RUPSA,4,201345,23.0861716247,90.7679297425
689,40874731,DAKSHIN SREEPUR,4,408747,22.4618245162,89.0988144562
690,20139590,DAKSHIN SUCHI PARA,4,201395,23.164904312,90.9268156192
691,30263660,DAKSHINGAON (PART),4,302636,23.750805567,90.4525521093
692,30263738,DAKSHINKHAN (PART),4,302637,23.8393447395,90.4452087616
693,10785755,DAKUA,4,107857,22.1963816895,90.4485673144
694,55523935,DALAGRAM,4,555239,25.9975493428,89.2324239461
695,40476938,DAMODARPUR,4,404769,22.9524681727,89.4591847888
696,55328225,DAMODARPUR,4,553282,25.4348265975,89.4597655208
697,55850325,DAMODARPUR,4,558503,25.7051219158,89.0398363082
698,30862599,DAMUDYA PAURASHAVA,4,308625,23.1324176154,90.4372683364
699,30296227,DANGI,4,302962,23.4746386039,89.9127788502
700,50762225,DANTHIA BAMANGRAM,4,507622,24.1865715566,89.2317042229
701,55733614,DAOABARI,4,557336,26.0698941912,89.0621584144
702,45615247,DAPUNIA,4,456152,24.7333333127,90.3385081029
703,20304154,DARBARPUR,4,203041,23.1090034365,91.444077201
704,50817243,DARSHAN PARA,4,508172,24.4789287976,88.5332716296
705,30862523,DARUL AMAN,4,308625,23.1527470029,90.4563951712
706,60581439,DASHER BAZAR,4,605814,24.7377195147,92.1414341048
707,10785252,DASHMINA,4,107852,22.2618294064,90.5687020054
708,20514340,DATTA PARA,4,205143,22.9707057554,90.9152320223
709,30548736,DATTA PARA,4,305487,23.363944267,90.1181075412
710,20193699,PAURASHAVA,4,201936,23.5317331552,90.7280269733
711,10795834,DAUDKHALI,4,107958,22.3254002016,90.0223892678
712,30822938,DAULATDIA,4,308229,23.7803621154,89.7683593822
713,40441431,DAULATPUR,4,404414,23.6085947555,89.02172135
714,50881154,DAULATPUR,4,508811,24.2561606664,89.6860300162
715,55273838,DAULATPUR,4,552738,25.4258490584,88.9570056516
716,20193682,PURBA PANCHGACHHIA,4,201936,23.4427379174,90.7543917549
717,20194029,DEBIDWAR,4,201940,23.6305102736,90.9871582412
718,55949436,DEBIPUR,4,559494,26.1713682135,88.5211276147
719,50760531,DEBOTTAR,4,507605,24.0971232549,89.2649124785
720,60367721,DEBPARA,4,603677,24.5540882001,91.6073048153
721,30294731,DECREERCHAR,4,302947,23.6236828605,89.8791778628
722,30484217,DEHUNDA,4,304842,24.4769894986,90.9075197664
723,30932323,DELDUAR,4,309323,24.1667901809,89.9633456846
724,30261265,DEMRA (PART),4,302612,23.7374888473,90.4768663621
725,20221631,DEMUSIA,4,202216,21.7669148177,91.9659986646
726,30480247,DEOGHAR,4,304802,24.3002185216,91.0454173136
727,20190937,DEORA,4,201909,23.3566330125,91.0327799333
728,60902999,PAURASHAVA,4,609029,24.7822799492,91.350151977
729,50888921,DESHIGRAM,4,508889,24.4995592785,89.3979698194
730,45391558,DEWANGANJ,4,453915,25.132735456,89.7794363634
731,60913825,DHAKA DAKSHIN,4,609138,24.8114737908,92.0346412091
732,30489227,DHALA,4,304892,24.589175766,90.9094854677
733,45728331,DHALA MULGAON,4,457283,24.960783524,90.6754866862
734,40874739,DHALBARIA,4,408747,22.3950454621,89.0081488091
735,10095428,DHALI GAURNAGAR,4,100954,22.3218840625,90.8112643025
736,30333238,DHALJORA,4,303332,24.0315650148,90.1709265629
737,20198743,DHALUA,4,201987,23.1150687435,91.2514858693
738,50642842,DHAMOIRHAT,4,506428,25.1503940081,88.8834981482
739,55770440,DHAMOR,4,557704,26.3161599843,88.4253178033
740,30267239,DHAMSANA,4,302672,23.9457456965,90.2589694224
741,55499439,DHAMSERNI,4,554994,25.651444715,89.6500140956
742,20754745,DHAN SIRI,4,207547,22.7815451249,91.1651869093
743,30932547,DHANBARI,4,309325,24.7092554427,89.9701151413
744,30932599,PAURASHAVA,4,309325,24.6848187935,89.9509689554
745,40558535,DHANESHWARGATI,4,405585,23.4081425816,89.2871491871
746,45619428,DHANIKHOLA,4,456194,24.6391368218,90.3602534728
747,10786655,DHANKHALI,4,107866,22.0622437561,90.3220335972
748,30567057,DHANKORA,4,305670,23.9110922825,90.0554593833
749,45893712,DHANSHAIL,4,458937,25.1811440053,90.016470658
750,55940863,DHANTALA,4,559408,26.1731819241,88.3164662965
751,50694140,DHARABARISHA,4,506941,24.3408218795,89.2343368274
752,40501554,DHARAMPUR,4,405015,24.0295336768,88.9509089913
753,60903238,DHARMAPASHA,4,609032,24.9242787725,91.0427147614
754,20153328,DHARMAPUR,4,201533,22.607264979,91.8755444035
755,20758747,DHARMAPUR,4,207587,22.7332086822,91.0699374855
756,55271757,DHARMAPUR,4,552717,25.5473635969,88.5474395254
757,20158236,PURBA DHEMSA,4,201582,22.1054182874,92.0587013038
758,20151838,DHOPACHHARI,4,201518,22.2473321165,92.1215254727
759,50767225,DHOPADAHA,4,507672,24.0861966231,89.5183808168
1298,45393647,MESHTA,4,453936,24.8405160768,89.8647987381
760,30933821,DHOPAKANDI,4,309338,24.5755943738,89.963667758
761,40013828,DHOPAKHALI,4,400138,22.7027093984,89.859298046
762,30937636,DHUBARIA,4,309376,24.0154075559,89.8355041996
763,50881167,DHUKARIA BERA,4,508811,24.2573803065,89.6444778488
764,10783841,DHULIA,4,107838,22.5489947266,90.5481795227
765,40411117,DHULIANI,4,404111,23.2133359973,89.0211956434
766,40878254,DHULIHAR,4,408782,22.6713900823,89.1374733513
767,10063627,DHULKHOLA,4,100636,22.8942875755,90.5729958287
768,50102738,DHUNAT,4,501027,24.6639892039,89.5245495797
769,50103327,DHUPCHANCHIA,4,501033,24.872153926,89.1609585036
770,30932843,DIGALKANDI,4,309328,24.4199006778,89.9646359885
771,20514345,DIGHALI,4,205143,22.9079141716,90.9333276516
772,30567047,DIGHALIA,4,305670,24.0073124786,89.9767647963
773,30599447,DIGHIR PARA,4,305994,23.4182873298,90.4816438585
774,40448025,DIGNAGAR,4,404480,23.6968172606,89.20436314
775,40419034,DIHI,4,404190,23.1675507988,88.9704573343
776,30480634,DILALPUR,4,304806,24.1824839366,90.9625999347
777,50384747,DOGACHHI,4,503847,25.1135272528,88.9674213817
778,20151847,DOHAZARI,4,201518,22.1730633414,92.0860889482
779,40444227,DORA,4,404442,23.5003459919,88.9683943124
780,45612327,DHAKAKHALA,4,456123,24.7250516279,90.5182959114
781,30932341,DUBAIL,4,309323,24.1523052301,89.99934026
782,50646051,DUBALHATI,4,506460,24.7948340625,88.8644133032
783,20221633,DULAHAZARA,4,202216,21.6857769765,92.0840107308
784,30687642,DULALPUR,4,306876,24.0579130213,90.6746676307
785,60902338,DULAR BAZAR,4,609023,24.8609727577,91.6267386668
786,20844738,DUMDUMYA,4,208447,22.6556732332,92.5014447734
787,30359128,DUMURIA,4,303591,22.8899481264,89.9462008917
788,55940873,DUOSUO,4,559408,26.0706780595,88.2894321342
789,10060740,DURGA PASHA,4,100607,22.5791856996,90.5130631447
790,50104027,DURGAHATA,4,501040,24.8485405837,89.5121931995
791,50889429,DURGANAGAR,4,508894,24.2686336739,89.5489643815
792,20155324,DURGAPUR,4,201553,22.8244986396,91.5387415738
793,30333625,DURGAPUR,4,303336,24.0691928715,90.6081061579
794,45721851,DURGAPUR,4,457218,25.1490892452,90.7050192521
795,55499450,DURGAPUR,4,554994,25.7372655884,89.6411263986
796,50811231,DWIPPUR,4,508112,24.6356996017,88.8199256673
797,30487938,EGARASINDUR,4,304879,24.2727812171,90.6697152689
798,50760547,EKDANTA,4,507605,24.0825927964,89.3322768021
799,30685254,AKDUARIA,4,306852,24.0931071785,90.7182680607
800,20750742,EKLASHPUR,4,207507,22.903886688,91.1029397242
801,30483347,ELONGJURI,4,304833,24.494815518,91.0501998774
802,55855854,EMADPUR,4,558558,25.5052104494,89.4105436241
803,45612041,ENAYETPUR,4,456120,24.4941809163,90.2317923059
804,55322111,ERENDABARI,4,553221,25.2940308122,89.7114063366
805,20758750,EWAZBALIA,4,207587,22.7893932299,91.0477681603
806,30931940,FALDA,4,309319,24.5116682858,89.8705577828
807,10095438,FARAZGANJ,4,100954,22.3094445431,90.7010431485
808,20302925,FARHADNAGAR,4,203029,22.9232295434,91.4863598497
809,50763399,PAURASHAVA,4,507633,24.1669527044,89.4419270682
810,20221644,FASIAKHALI,4,202216,21.7419970773,92.0952544781
811,20153735,FATEHPUR,4,201537,22.4754659326,91.7977126621
812,30670239,FATEHPUR,4,306702,23.7840726796,90.6751407057
813,40447117,FATEHPUR,4,404471,23.388080623,88.9079385194
814,45725610,FATEHPUR,4,457256,24.6227636634,90.9770337797
815,50705619,FATEHPUR,4,507056,24.7217372404,88.3356805065
816,60914121,FATEHPUR,4,609141,24.9932701693,91.9596753844
817,30932359,FAZILHATI,4,309323,24.1203900983,89.9576774931
818,20302930,FAZILPUR,4,203029,22.9651878264,91.4880787693
819,55276434,FAZILPUR,4,552764,25.6962490164,88.706920981
820,60913523,FENCHUGANJ,4,609135,24.7236008545,91.9356037886
821,20302999,PAURASHAVA,4,203029,23.0090366084,91.3869659444
822,50108131,FULBARI,4,501081,24.8629608667,89.5451939971
823,60913843,FULBARI,4,609138,24.8462921085,91.9606155238
824,30333247,FULBARIA,4,303332,24.1848572012,90.2964382179
825,55322135,FULCHHARI,4,553221,25.1580686255,89.6339478064
826,60583523,FULTALA,4,605835,24.4295830577,92.1352449751
827,20304174,G.M.HAT,4,203041,23.0842011264,91.4582031131
828,10424028,GABKHAN DHANSIRI,4,104240,22.624771691,90.1648718448
829,50104099,PAURASHAVA,4,501040,24.8708065255,89.4494633593
830,30333031,GACHHA,4,303330,23.9468983203,90.3770129995
831,10066935,GACHHUA,4,100669,22.9589048859,90.4264773902
832,20157830,GACHHUA,4,201578,22.5520024438,91.4783284762
833,40476433,GADAIPUR,4,404764,22.6163900281,89.3138236796
834,20157437,GAHIRA,4,201574,22.5223039387,91.8614256792
835,45392939,GAIBANDHA,4,453929,25.0870434907,89.8668722497
836,20137923,GAJRA,4,201379,23.4048206446,90.6383722011
838,10785767,GALACHIPA,4,107857,22.1185385678,90.412596668
839,20192755,GALLAI,4,201927,23.4316076422,90.9044567402
840,45896738,GANAPADDI,4,458967,24.992867869,90.1432346883
841,45724740,GANDA,4,457247,24.6796772706,90.7204826932
842,40574799,PAURASHAVA,4,405747,23.8203935427,88.7496367403
843,30261441,GANGUTIA,4,302614,23.9364357488,90.0796996466
844,50811250,GANIPUR,4,508112,24.5434818975,88.746895735
845,40015647,GAOLA,4,400156,22.8350988337,89.7443009516
846,20153747,GARDUARA,4,201537,22.4947884691,91.8635260298
847,55949442,GAREYA,4,559494,26.0482642917,88.572536911
848,50108828,GARIDAHA,4,501088,24.6946861561,89.4155305327
849,30564631,GARPARA,4,305646,23.9044679196,89.9750851138
850,50767243,GAURIGRAM,4,507672,24.0152763305,89.5341176403
851,20193651,GAURIPUR,4,201936,23.5358728597,90.7810715205
852,45612331,GAURIPUR,4,456123,24.7734492101,90.5673371053
853,45893715,GAURIPUR,4,458937,25.158335973,90.0945690609
854,40013838,GAZALIA,4,400138,22.731825641,89.879026878
855,30592442,GAZARIA,4,305924,23.5406612041,90.5929771608
856,30338625,GAZIPUR,4,303386,24.2706311617,90.3436306977
857,40474066,GAZIRHAT,4,404740,22.9543619349,89.5852526808
858,60367743,GAZNAPUR,4,603677,24.4879066942,91.5949627562
859,55945167,GEDURA,4,559451,25.9578579751,88.1529518554
860,30355123,GHAGAR,4,303551,22.9880584227,90.0053387118
861,45615254,GHAGRA,4,456152,24.697621286,90.3717012106
862,20195447,GHAGUTIA,4,201954,23.7099501628,90.7923625238
863,20039119,GHALANGYA,4,200391,21.9713004299,92.3493386575
864,55497742,GHARIALDANGA,4,554977,25.7957671843,89.4832380315
865,30939547,GHARINDA,4,309395,24.2654367017,89.9573995757
866,30932860,GHATAIL,4,309328,24.5017525739,89.9665401493
867,30932899,PAURASHAVA,4,309328,24.4824692434,89.9739196839
868,45898854,GHAZIR KHAMAR,4,458988,25.0583105859,90.0828696807
869,20847846,GHILA CHHARI,4,208478,22.3902333762,92.2952169926
870,30562247,GHIOR,4,305622,23.8903230787,89.8750381461
871,40441921,GHORSHAL,4,404419,23.4666076605,89.2398713251
872,50647534,GHOSHNAGAR,4,506475,25.029513151,88.8171603869
873,50886157,GHURKA,4,508861,24.4652210197,89.5138301534
874,20193638,GOALMARI,4,201936,23.4942575443,90.7293271477
875,20197543,GOBINDAPUR,4,201975,23.6031524094,90.7124295031
876,30355833,GOBINDAPUR,4,303558,23.2849108884,89.8351624881
877,50813499,PAURASHAVA,4,508134,24.4733255015,88.3303454794
878,55523338,GODDIMARI,4,555233,26.1774841851,89.0808503863
879,45728355,GOHALAKANDA,4,457283,24.8441296508,90.5925214346
880,50701856,GOHALBARI,4,507018,24.9028256418,88.1980605276
881,30934743,GOHALIABARI,4,309347,24.3731697236,89.7993669281
882,20129058,GOKARNA,4,201290,24.1295257618,91.1908832461
883,55525529,GOKUNDA,4,555255,25.8204362009,89.4472503678
884,55276943,GOLAPGANJ,4,552769,25.4397984668,89.0476925642
885,50703752,GOMASTAPUR,4,507037,24.7739981482,88.2987266913
886,55731547,GOMNATI,4,557315,26.2044625562,88.8514545625
887,40506331,GOPAGRAM,4,405063,23.8578556765,89.3041047696
888,30353299,PAURASHAVA,4,303532,22.998269289,89.82106652
889,20750745,GOPALPUR,4,207507,22.967877526,91.0558378134
890,30290342,GOPALPUR,4,302903,23.2820809489,89.6760005259
891,40013847,GOPALPUR,4,400138,22.6237781939,89.8986480399
892,50691535,GOPALPUR,4,506915,24.1909361277,89.1303682303
893,30485940,GOPEDIGHI,4,304859,24.4488315869,91.0407073731
894,30562858,GOPINATHPUR,4,305628,23.7404221689,89.9076565989
895,50102766,GOSAINBARI,4,501027,24.7219375402,89.5930610674
896,45899039,GOSAIPUR,4,458990,25.1383687078,89.9784243341
897,30338628,GOSINGA,4,303386,24.1738135729,90.5172172686
898,40010851,GOTA PARA,4,400108,22.6913638054,89.8204552169
899,60908927,GOURARARANG,4,609089,25.0404962107,91.3260606813
900,10063654,GUABARIA,4,100636,22.9309321816,90.4595989171
901,30592452,GUAGACHHIA,4,305924,23.507089495,90.6766573443
902,10798738,GUAREKHA,4,107987,22.6840259686,90.0386900918
903,10040963,GULISAKHALI,4,100409,22.2208175798,90.2568898452
904,20153753,GUMAN MARDAN,4,201537,22.5646795075,91.819637049
905,55323016,GUMANIGANJ,4,553230,25.1255277272,89.341467839
906,50103354,GUNAHAR,4,501033,24.8934935138,89.1191348638
907,30484225,GUNDHAR,4,304842,24.4178335003,90.9326178717
908,20129065,GUNIAK,4,201290,24.1643799698,91.2543789717
909,50694199,PAURASHAVA,4,506941,24.3721381883,89.2397265865
910,40657640,HABAKHALI,4,406576,23.2521377692,89.4958157392
911,60364499,PAURASHAVA,4,603644,24.3806406169,91.4144785065
912,45611351,HABIRBARI,4,456113,24.3192416567,90.3821551025
913,30930947,HABLA,4,309309,24.1905908628,90.0073519706
914,55277725,HABRA,4,552777,25.5764175726,88.9178070963
916,20156142,HAIDGAON,4,201561,22.3080699696,92.0499416473
917,30686444,HAIRMARA,4,306864,23.9225465235,90.8108438733
918,20155327,HAITKANDI,4,201553,22.7002977706,91.5844547862
919,55948243,HAJIPUR,4,559482,25.8337173866,88.2957256709
920,40441926,HALIDHANI,4,404419,23.5514029013,89.0752900007
921,30480651,HALIMPUR,4,304806,24.2510513311,90.8855888012
922,40652823,BENDA,4,406528,22.9878959572,89.5971018792
923,20132258,HANAR CHAR,4,201322,23.1491290983,90.6462143388
924,50817251,HARAGRAM,4,508172,24.4035194586,88.5683307856
925,55525536,HARATI,4,555255,25.8685293315,89.4109308371
926,20221650,HARBANG,4,202216,21.8759689444,92.0379881836
927,30548031,HARIDASDI MAHENDRADI,4,305480,23.2686892636,90.0538932526
928,55854923,HARIDEBPUR,4,558549,25.7896143522,89.1527597698
929,40416133,HARIHARNAGAR,4,404161,23.0158918974,89.1037128048
930,40441499,PAURASHAVA,4,404414,23.6439385833,89.0571574278
931,55326728,HARINATHPUR,4,553267,25.2225752258,89.5041315708
932,20129073,HARIPUR,4,201290,24.1127487862,91.2567987076
933,55277743,HARIRAMPUR,4,552777,25.5722180969,89.0422202015
934,10069442,HARTA,4,100694,22.8655614695,90.0977729895
935,30562865,HARUKANDI,4,305628,23.7188517985,90.0064808966
936,20153342,HARWALCHHARI,4,201533,22.7096004768,91.7137607387
937,20197431,HASNABAD,4,201974,23.1269008791,91.006978619
938,10092138,HASSAN NAGAR,4,100921,22.4644870444,90.8032772637
939,50108137,HAT SHERPUR,4,501081,24.9464968802,89.5794151626
940,45391565,HATEBHANGA,4,453915,25.2793883752,89.7697499465
941,30564639,HATI PARA,4,305646,23.7434425888,90.0539012006
942,50699139,HATIANDAHA,4,506991,24.4425381836,89.1068017186
943,20751019,HATPUKURIA GHATLABAG,4,207510,23.0425146263,90.9428496384
944,10092557,HAZARIGANJ,4,100925,22.1026902496,90.7677311709
945,55773453,HAZRADANGA,4,557734,26.0464555451,88.6620828944
946,40555747,HAZRAPUR,4,405557,23.5001739395,89.3303959475
947,30263817,HAZRATPUR,4,302638,23.7453557851,90.2470264583
948,50765560,HEMAYETPUR,4,507655,23.9960282653,89.1817626265
949,30355131,HIRAN,4,303551,22.9970981465,89.9557451708
950,40503940,HOGALBARIA,4,405039,24.0383606956,88.8864950209
951,55495238,HOLOKHANA,4,554952,25.8611981016,89.6270165838
952,20195499,PAURASHAVA,4,201954,23.6790635048,90.7589094261
953,20195466,HOMNA,4,201954,23.6668244394,90.7562423684
954,10044747,HOSNABAD,4,100447,22.3634267582,90.1658062222
955,30592463,HOSSAINDI,4,305924,23.5779089559,90.5866604485
956,50817265,HUJURI PARA,4,508172,24.4489484297,88.5565726921
957,30480669,HUMAIPUR,4,304806,24.2583968752,91.0211407434
958,20132263,IBRAHIMPUR,4,201322,23.2086415978,90.6412448221
959,20222435,IDGAON,4,202224,21.5381252011,92.0907068162
960,10061052,ILUHAR,4,100610,22.7964308166,90.0903807872
961,60367751,INATHGANJ,4,603677,24.6356277825,91.5668394558
962,30294747,ISHAN GOPALPUR,4,302947,23.656982703,89.7679471811
963,45613140,ISHWARGANJ,4,456131,24.6760975111,90.6098237091
964,30862540,ISLAM PUR,4,308625,23.1650571469,90.3929744924
965,20137925,ISLAMABAD,4,201379,23.4110887092,90.7199917154
966,20157021,DAKSHIN RAJANAGAR,4,201570,22.5779298222,92.070433798
967,20222438,ISLAMPUR,4,202224,21.5927960986,92.0489865133
968,50706639,ISLAMPUR,4,507066,24.5482050388,88.2568344834
969,60912711,ISLAMPUR PASCHIM,4,609127,25.1112417632,91.7391284311
970,45393623,ITAIL,4,453936,24.85329642,90.1696858249
971,55736431,ITAKHOLA,4,557364,25.9318126675,88.8798755556
972,55857328,ITAKUMARI,4,558573,25.7058034353,89.3896003755
973,30261447,JADABPUR,4,302614,24.0084510909,90.1177803326
974,40507134,JADU BOYRA,4,405071,23.82277968,89.2231753593
975,20194065,JAFARGANJ,4,201940,23.5766901883,91.0308526393
976,60367169,JAGADISHPUR,4,603671,24.1545327003,91.3359197508
977,20193147,JAGANNATH DIGHI,4,201931,23.1239042943,91.3218450054
978,55527027,JAGATBER,4,555270,26.3648550474,89.0639955927
979,20753657,JAHAJMARA,4,207536,22.1367760242,91.0768712057
980,50642863,JAHANPUR,4,506428,25.1104672204,88.9049558898
981,40410966,JAHARPUR,4,404109,23.3320598119,89.2568872678
982,60583547,JAIFARNAGAR,4,605835,24.6061011086,92.086537977
983,30564655,JAIGIR,4,305646,23.8867848474,90.0240930001
984,20302538,JAILASHKARA,4,203025,22.9826958523,91.3379845337
985,10789527,JAINKATI,4,107895,22.3315653248,90.3775216445
986,60915352,JAINTAPUR,4,609153,25.1443622254,92.0892211081
987,30353238,JALALABAD,4,303532,23.1100780084,89.7074150288
988,40879023,JALALPUR,4,408790,22.7021094575,89.263859254
989,50886729,JALALPUR,4,508867,24.1913326536,89.690884457
990,20229431,JALIA PALONG,4,202294,21.2083282028,92.0731784899
991,30333460,JAMALPUR,4,303334,23.9871399327,90.5994063049
992,55328260,JAMALPUR,4,553282,25.4059030932,89.4289789464
993,40476957,JAMIRA,4,404769,22.9385728201,89.4188140491
994,40180755,JAMJAMI,4,401807,23.703570689,88.9936544266
995,30670434,JAMPUR,4,306704,23.7429373248,90.5933961886
996,30936663,JAMURKI,4,309366,24.1287940411,90.0264410289
997,30487957,JANGALIA,4,304879,24.366932583,90.6590163944
998,20156152,JANGLUKHAIN,4,201561,22.309060673,91.9459618042
999,30487647,JARAITALA,4,304876,24.282723344,90.9095916371
1000,45728371,JARIA,4,457283,24.9833514375,90.6364856555
1001,30484943,JASODAL,4,304849,24.4072861093,90.7942997456
1002,40506343,JAYANTI HAJRA,4,405063,23.8486308646,89.3346816271
1003,45612231,JESSORA,4,456122,24.4725152403,90.4822999561
1004,50813135,JHALUKA,4,508131,24.4209492783,88.7270393078
1005,30933873,JHAOAIL,4,309338,24.5999263378,89.8499865614
1006,40441999,PAURASHAVA,4,404419,23.5460132613,89.1739155208
1007,40412347,JHIKARGACHHA,4,404123,23.1157765805,89.1144616485
1008,50811263,JHIKRA,4,508112,24.6190396464,88.8908142444
1009,50706644,JHILIM,4,507066,24.6185584586,88.3531432511
1010,20222447,JHILWANJA,4,202224,21.4247210714,92.0120962037
1011,60915938,JHINGRABARI,4,609159,24.9545534607,92.1155523421
1012,55731238,JHUNAGACHH CHAPANI,4,557312,26.1126136308,89.0562076973
1013,40507956,JIRAAKHI,4,405079,23.8371210295,89.1305691943
1014,20193647,JINGLATALI,4,201936,23.5303239087,90.8107916073
1015,20750756,JIRTALI,4,207507,22.9300125716,91.0553664111
1016,40016053,JIUDHARA,4,400160,22.4618905936,89.7406024465
1017,30561066,JIYANPUR,4,305610,23.9569745762,89.7944744026
1018,20151876,JOARA,4,201518,22.2222279193,92.0087365337
1019,40874355,JOGIKHALI,4,408743,22.8907970263,89.0886412828
1020,45395859,JOREKHALI,4,453958,24.8325278425,89.7267771767
1021,50109542,JORGACHHA,4,501095,24.9635546158,89.5128949498
1022,30568251,JOY MANTAP,4,305682,23.8003801239,90.180196189
1023,60586541,JOYCHANDI,4,605865,24.5313696909,92.0766220127
1024,30266261,JOYKRISHNAPUR,4,302662,23.6838931259,90.0469241641
1025,50813147,JOYNAGAR,4,508131,24.4863963018,88.6963552625
1026,55276951,JOYPUR,4,552769,25.513304947,89.0184633011
1027,40474875,JUGIPOLE,4,404748,22.9001876537,89.4906322894
1028,45612467,JUGLI,4,456124,25.1255621816,90.2938156824
1029,20150481,JUIDANDI,4,201504,22.1464769161,91.8713547937
1030,55328847,JUMMERBARI,4,553288,25.061120774,89.5589076675
1031,30548057,KABIRAJPUR,4,305480,23.2847000525,90.074999044
1032,55496137,KACHAKATA,4,554961,25.9851662829,89.8259939695
1033,10091858,KACHIA,4,100918,22.7318444664,90.6675682279
1034,20156158,KACHUAI,4,201561,22.2695249848,92.0506791187
1035,40870456,KADAKATI,4,408704,22.5921428506,89.2108346137
1036,30670699,PAURASHAVA,4,306706,23.6431825222,90.5253713485
1037,30548066,KADAMBARI,4,305480,23.1490093733,89.9759068088
1038,20750763,KADIRPUR,4,207507,22.9052911005,91.1779828434
1039,50696351,KAFURIA,4,506963,24.3659067006,88.9045111745
1040,20221661,KAIARBIL,4,202216,21.795191786,92.0520390456
1041,30296250,KAICHAIL,4,302962,23.4033047495,89.9241889142
1042,45724023,KAILATI,4,457240,25.0256008502,90.7978802512
1043,45725642,KAITAIL,4,457256,24.7162351876,90.8933916516
1044,20224554,KAIYARBIL,4,202245,21.8440804022,91.856380089
1045,55772558,KAJAL DIGHI KALIGANJ,4,557725,26.2869431046,88.6399189174
1046,60919447,KAJALSHAR,4,609194,24.961364408,92.3652696994
1047,30353243,KAJULIA,4,303532,23.0447626637,89.9411525057
1048,10048523,KAKCHIRA,4,100485,22.152262078,90.0202495526
1049,45899047,KAKILAKURA,4,458990,25.2060293915,89.9122444752
1050,30939571,KAKUA,4,309395,24.3214074673,89.8046203208
1051,30670255,KALA PAHARIA,4,306702,23.6923246674,90.7147220253
1052,30355139,KALABARI,4,303551,23.0916005511,89.9988492267
1053,20758765,KALADARAF,4,207587,22.7885455135,91.0004651787
1054,30670647,KALAGACHHIA,4,306706,23.5883674374,90.5319502598
1055,50105447,KALAI MAJH PARA,4,501054,24.9034457476,89.2329080682
1056,50385899,PAURASHAVA,4,503858,25.0713695309,89.179527176
1057,10783853,KALAIYA,4,107838,22.3618059889,90.6202928909
1058,10798034,KALAKHALI,4,107980,22.6449856211,90.0167068012
1059,30266274,KALAKOPA,4,302662,23.6491144738,90.1532348866
1060,20842576,KALAMPATI,4,208425,22.5932244063,91.9914277989
1061,30291055,KALAMRIDHA,4,302910,23.3267633254,90.0678371549
1062,20845860,KALAPAKURJYA,4,208458,22.9291358036,92.2871774136
1063,20157855,KALAPANIA,4,201578,22.5482699171,91.4366753448
1064,40874399,PAURASHAVA,4,408743,22.8583418768,89.0372545019
1065,50102776,KALER PARA,4,501027,24.7263374658,89.5249841936
1066,40652899,PAURASHAVA,4,406528,23.0366199065,89.6262181157
1067,40441942,KALICHARANPUR,4,404419,23.514772438,89.2093864607
1068,40180751,KALIDASPUR,4,401807,23.7828126836,88.961610802
1069,55496144,KALIGANJ,4,554961,25.919100364,89.7581917339
1070,60904738,KALKALIA,4,609047,24.8092611347,91.5095429147
1071,30544099,KALKINI PAURASHAVA,4,305440,23.0753775925,90.2356173795
1072,45724035,KALMAKANDA,4,457240,25.0781702773,90.8980440136
1073,55857347,KALYANI,4,558573,25.7277657817,89.3279198231
1074,10785775,KALYANKALAS,4,107857,22.2821726876,90.4508074979
1075,55328866,KAMALER PARA,4,553288,25.0818363667,89.5310355973
1076,60585699,PAURASHAVA,4,605856,24.3632432797,91.8558653849
1077,55276443,KAMALPUR,4,552764,25.5011117626,88.6774764001
1078,50819457,KAMARGAON,4,508194,24.6607911658,88.6056137341
1079,30295642,KAMARKHALI,4,302956,23.5114251254,89.5221872262
1080,45398542,KAMRABAD,4,453985,24.7809809483,89.8253132313
1081,60915999,PAURASHAVA,4,609159,25.0153383317,92.2466423415
1082,30594455,KANAKSAR,4,305944,23.4857202519,90.3223155492
1083,20198149,KANALLA,4,201981,23.6863642066,90.9143207493
1084,30930959,KANCHANPUR,4,309309,24.1888313847,90.0802958733
1085,10783847,KANCHI PARA,4,107838,22.4948569197,90.4565177534
1086,55322159,KANCHI PARA,4,553221,25.3146492851,89.6150123958
1087,30862547,KANESHWAR,4,308625,23.14795187,90.4188596617
1088,20842971,KANGARA CHHARI,4,208429,22.5167708292,92.3288957876
1089,55495257,KANTHALBARI,4,554952,25.8309494562,89.5995750743
1090,55733658,KANTHALI,4,557336,26.0170888341,88.970630391
1091,10424363,KANTHALIA,4,104243,22.3921731244,90.1165428535
1092,50887834,KAOAKOLA,4,508878,24.4986637574,89.7292062062
1093,30930983,KAOALJANI,4,309309,24.2709455614,90.061065952
1094,40441463,KAPASHATI,4,404414,23.6004857741,89.0816950852
1095,30333643,KAPASIA,4,303336,24.1007202215,90.5503433763
1096,55329156,KAPASIA,4,553291,25.4535536203,89.6691776856
1097,40010869,KARA PARA,4,400108,22.6549045579,89.7704836307
1098,20135863,KARAIA,4,201358,23.3221205852,90.9028205792
1099,10040979,KARAIBARIA,4,100409,22.0150524856,90.1451657284
1100,45395871,KARAICHARA,4,453958,24.9408966959,89.7636257733
1101,50767251,KARANJA,4,507672,24.0444767949,89.592934734
1102,30333651,KARIHATA,4,303336,24.1390351104,90.6202700726
1103,20199467,KARIKANDI,4,201994,23.5858428871,90.798277994
1104,30484299,PAURASHAVA,4,304842,24.4727384542,90.8639886343
1105,60902947,KARIMPUR,4,609029,24.8110680354,91.3764116437
1106,60586559,KARMADHA,4,605865,24.4356162937,92.0678679874
1107,30487657,KARPASHA,4,304876,24.3749424234,90.9261991688
1108,20126363,KASBA,4,201263,23.7430912601,91.1291150421
1109,30827340,KASBA MAJHAIL,4,308273,23.7109534406,89.3396114607
1110,50644747,KASHAB,4,506447,24.7186840665,88.8145702374
1111,30333047,KASHIMPUR,4,303330,23.9825050582,90.2946421715
1112,45616551,KASHIMPUR,4,456165,24.6988577784,90.1934343756
1113,20155341,KATACHHARA,4,201553,22.8163351574,91.5065099381
1114,50817200,KATAKHALI PAURASHAVA,4,508172,24.3605107078,88.6757287053
1115,30599479,KATHADIA SHIMULIA,4,305994,23.4907500268,90.4875612394
1116,30267250,KAUNDIA,4,302672,23.8074237454,90.3271999743
1117,30333054,KAYALTIA,4,303330,24.0545262407,90.3845723688
1118,20466515,KAYANGGHAT,4,204665,23.0105029608,92.0565412474
1119,40419051,KAYBA,4,404190,22.9330866005,88.9455703346
1120,30544063,KAZIBAKAI,4,305440,23.0814586191,90.1760125208
1121,55273866,KAZIHAL,4,552738,25.4293984343,88.8529761954
1122,40447129,KAZIRBER,4,404471,23.2515409049,88.7710112951
1123,50108155,KAZLA,4,501081,24.9253817573,89.6382782447
1124,20156167,KELISHAHAR,4,201561,22.3328747341,92.0136756639
1125,20158254,KEOCHIA,4,201582,22.1187086521,92.0842788146
1126,10424057,KEORA,4,104240,22.6672997725,90.1659327441
1127,10042876,KEORABUNIA,4,100428,22.208824249,90.1732072676
1128,30485967,KEORJORI,4,304859,24.4214721784,91.159364463
1129,40874371,KERALKATA,4,408743,22.9151590251,88.998690664
1130,55731576,KETKIBARI,4,557315,26.2253282281,88.8153849285
1131,45615267,KHAGDAHAR,4,456152,24.7839803102,90.3428945752
1132,20464963,KHAGRACHHARI,4,204649,23.0382637438,91.9779391466
1133,20464999,PAURASHAVA,4,204649,23.1048900555,91.9616311989
1134,40879031,KHALILNAGAR,4,408790,22.7387754522,89.295194933
1135,40503947,KHALISHAKUNDI,4,405039,23.9097150266,88.8797599297
1136,55276094,KHAMAR PARA,4,552760,25.8549919045,88.7494077084
1137,50108838,KHAMARKANDI,4,501088,24.6989015579,89.4589143326
1138,30355855,KHANDARPAR,4,303558,23.2599093078,89.8542739355
1139,55948260,KHANGAON,4,559482,25.9467059553,88.3914525716
1140,10063255,KHANJAPUR,4,100632,23.0501200398,90.1926792334
1141,30827643,KHANKHANAPUR,4,308276,23.6867102774,89.7244729055
1142,20156170,KHARANA,4,201561,22.2573486292,92.0127460277
1143,45724047,KHARNAI,4,457240,25.126963591,90.8438143196
1144,50882727,KHAS KAULIA,4,508827,24.123724692,89.7926038865
1145,50885043,KHAS RAJBARI,4,508850,24.7395866633,89.6923517776
1146,40652863,KHASIAL,4,406528,23.0681604571,89.6947563855
1147,40180779,KHASKARA,4,401807,23.6467524806,88.9852484631
1148,55273876,KHAYERBARI,4,552738,25.4575214693,88.9577049032
1149,60912063,KHAZANCHIGAON,4,609120,24.8787910237,91.7611871429
1150,40879047,KHESRA,4,408790,22.6566591834,89.2310656154
1151,30594463,KHIDIR PARA,4,305944,23.5041142027,90.3946060805
1152,20751028,KHIL PARA,4,207510,22.9991150081,90.979662848
1153,50886751,KHUKNI,4,508867,24.2178222378,89.6816509066
1154,20226657,KHUNIAPALONG,4,202266,21.3414336379,92.07603285
1155,55734551,KISHOREGANJ,4,557345,25.8957978332,89.0338588488
1156,55326747,KISHOREGARI,4,553267,25.279517912,89.3020152401
1157,55490857,KODAILKATI,4,554908,25.4870224945,89.7691851681
1158,20157030,KODALA,4,201570,22.4283836663,92.105405622
1159,30296267,NAGARKANDA,4,302962,23.4029794739,89.8812644414
1160,30863647,KODALPUR,4,308636,23.0957951151,90.4893007697
1161,50640663,KOLA,4,506406,24.9535629733,88.9762267567
1162,30598447,KOLA PARA,4,305984,23.5068543093,90.2681906342
1163,20156173,KOLAGAON,4,201561,22.323414532,91.8867984605
1164,30484951,KORSHA KARIAIL,4,304849,24.3808827539,90.820447791
1165,30355199,PAURASHAVA,4,303551,22.9920507238,89.9925184137
1166,40444299,PAURASHAVA,4,404442,23.4073580517,89.0191538995
1167,20128545,KRISHNANAGAR,4,201285,23.9346728359,90.9878650181
1168,30298466,KRISHNAPUR,4,302984,23.4897858733,89.9447636118
1169,45723854,KRISHNAPUR,4,457238,24.6697263487,91.2090306078
1170,50647543,KRISHNAPUR,4,506475,25.0958897805,88.7175591641
1171,55527054,KUCHLIBARI,4,555270,26.3051670049,89.0194706892
1172,60586599,PAURASHAVA,4,605865,24.52424786,92.0338135188
1173,40015685,KULIA,4,400156,22.8886686451,89.7552083298
1174,10427321,KULKATI,4,104273,22.6121902054,90.2421113349
1175,30261453,KULLA,4,302614,23.877864589,90.2104963685
1176,45721886,KULLAGORA,4,457218,25.1444511763,90.6359764419
1177,40416161,KULTIA,4,404161,22.9979076333,89.3263002239
1178,40180787,KUMARI,4,401807,23.7676972201,88.9121075376
1179,55736450,KUNDA PUKUR,4,557364,25.9022914064,88.8315037462
1180,30869451,KUNDER CHAR,4,308694,23.3665121633,90.397971822
1181,55322465,KUPTALA,4,553224,25.3856745845,89.5188380713
1182,40183171,KURALGACHHI,4,401831,23.5469793211,88.719811235
1183,60911743,KURAR BAZAR,4,609117,24.8543277921,92.1318759387
1184,55854240,SHAHIDBAGH,4,558542,25.7482283313,89.3671562741
1185,40874379,KUSHADANGA,4,408743,22.9136293659,89.0474545161
1186,20514355,KUSHAKHALI,4,205143,22.8587984312,90.9257988323
1187,30359166,KUSHLI,4,303591,22.9340347601,89.8499564656
1188,45615274,KUSHTIA,4,456152,24.8217835891,90.2699367435
1189,40507999,PAURASHAVA,4,405079,23.8994790687,89.1300687271
1190,50644754,KUSUMBA,4,506447,24.7339867132,88.6951277474
1191,20126369,KUTI,4,201263,23.7319476537,91.0868420165
1192,30548758,KUTUBPUR,4,305487,23.3896804462,90.2189153024
1193,55850363,KUTUBPUR,4,558503,25.6423575489,89.1199010144
1194,20848754,KUTUK CHHARI,4,208487,22.7121464561,92.0888508977
1195,50102047,LAHIRI PARA,4,501020,24.9512549379,89.3821008189
1196,60366854,LAKHAI,4,603668,24.2828772629,91.2033576582
1197,40013442,LAKHPUR,4,400134,22.7461041189,89.6189809708
1198,20197252,LAKSAM,4,201972,23.2332403977,91.1619256648
1199,20197299,PAURASHAVA,4,201972,23.2404598652,91.1261944865
1200,60913860,LAKSHMI PASHA,4,609138,24.8268208809,91.9761148209
1201,45727447,LAKSHMIGANJ,4,457274,24.8067666908,90.7551830639
1202,50763931,LAKSHMIKUNDI,4,507639,24.0026213587,89.0956694298
1203,20190982,LAKSHMIPUR,4,201909,23.2621530364,91.0246516447
1204,30544069,LAKSHMIPUR,4,305440,23.1349157725,90.3026162356
1205,50696365,LAKSHMIPUR KHOLABARIA,4,506963,24.3545161269,89.0352787336
1206,55852773,LAKSHMITARI,4,558527,25.8771513993,89.2575661888
1207,20035163,LAMA,4,200351,21.7791773556,92.2407222107
1208,45612237,LANGAIR,4,456122,24.3716776175,90.5510574772
1209,40476461,LASKAR,4,404764,22.5519354581,89.3250453367
1210,60364424,LASKARPUR,4,603644,24.3021991241,91.4730283652
1211,10786647,LATA CHAPLI,4,107866,21.8345321622,90.1402135598
1212,30484960,LATIBABAD,4,304849,24.4716780124,90.7626578076
1213,20467738,LATIBAN,4,204677,23.2435756305,91.9338318994
1214,10785547,LEBUKHALI,4,107855,22.4547872929,90.3701679977
1215,30685281,LEBUTALA,4,306852,24.2111831473,90.6944629935
1216,20224567,LEMSIKHALI,4,202245,21.8591062979,91.8806769993
1217,20154762,LOHAGARA,4,201547,22.0000013388,92.1011492855
1218,40655263,LOHAGARA,4,406552,23.2046647098,89.6758743741
1219,30484566,LOHAJURI,4,304845,24.1947182642,90.816623109
1220,45725699,PAURASHAVA,4,457256,24.716814816,90.9483435696
1221,10783877,MADANPURA,4,107838,22.4439430404,90.5244997331
1222,45395899,PAURASHAVA,4,453958,24.9033176601,89.7086299017
1223,20158265,MADARSA,4,201582,22.0619992227,92.0090748913
1224,10060367,MADHAB PASHA,4,100603,22.7656661334,90.28320461
1225,30686000,PAURASHAVA,4,306860,23.8445443526,90.6674695174
1226,60367199,PAURASHAVA,4,603671,24.1013728712,91.2957442223
1227,50695573,MADHNAGAR,4,506955,24.5238428893,88.9754224755
1228,30295652,MADHUKHALI,4,302956,23.5209423567,89.6470752506
1229,50109552,MADHUPUR,4,501095,25.0213657386,89.5430077355
1230,55850375,MADHUPUR,4,558503,25.7014017961,89.0870301852
1231,60903257,MADHYANAGAR,4,609032,25.043478931,90.966470256
1232,10427342,MAGAR,4,104273,22.6671202628,90.285018138
1233,20157865,MAGDHARA,4,201578,22.4494526777,91.5327522614
1234,40013866,MAGHIA,4,400138,22.6746354356,89.8966167606
1235,30939577,MAGRA,4,309395,24.3258258331,89.8733379824
1236,45613163,MAGTALA,4,456131,24.5910805678,90.5861144043
1237,40555799,PAURASHAVA,4,405557,23.486997772,89.4109754901
1238,40473054,MAGURAGHONA,4,404730,22.8166254818,89.2751891701
1239,40576076,MAHAJANPUR,4,405760,23.6748554715,88.6746156758
1240,20466531,MAHALCHHARI,4,204665,22.9040729081,92.0104390831
1241,30355861,MAHARAJPUR,4,303558,23.3093581286,89.9190120599
1242,20224999,PAURASHAVA,4,202249,21.5175096299,91.9626486837
1243,30686447,MAHESHPUR,4,306864,24.003605085,90.940661185
1244,55323050,MAHIMAGANJ,4,553230,25.1145982574,89.4799034321
1245,30686059,MAHISHASURA,4,306860,23.8606559164,90.6947663163
1246,55520271,MAHISHKHOCHA,4,555202,25.8795248204,89.3247046319
1247,30670271,MAHMUDPUR,4,306702,23.7661865092,90.6888426535
1248,45396176,MAHMUDPUR,4,453961,24.9897699578,89.752658275
1249,20844776,MAIDANG,4,208447,22.5626397304,92.4137752401
1250,40657654,MAIJ PARA,4,406576,23.2384063228,89.4558871506
1251,45613154,MAIJBAGH,4,456131,24.6211148434,90.6233971116
1252,50885051,MAIJBARI,4,508850,24.6949230356,89.6459355306
1253,60913571,MAIJGAON,4,609135,24.6817986385,91.9364889432
1254,20191863,MAINAMATI,4,201918,23.4992961603,91.1016247915
1255,20157870,MAITBHANGA,4,201578,22.4449703399,91.4845168233
1256,30294779,MAJCHAR,4,302947,23.6201196009,89.7625731169
1257,50691571,MAJGAON,4,506915,24.2866738701,89.1021913711
1258,50760579,MAJH PARA,4,507605,24.1559336088,89.1885470204
1259,50109455,MAJHIHATTA,4,501094,24.9374390202,89.2241572606
1260,10787667,MAJIDBARI,4,107876,22.2576103139,90.1874080075
1261,20191562,MALAPARA,4,201915,23.5738951863,91.0751789928
1262,40017353,MALLIKER BER,4,400173,22.5597708227,89.7456761621
1263,30937658,MAMUDNAGAR,4,309376,24.0347747928,89.9101801711
1264,50708853,MANAKOSA,4,507088,24.6892561635,88.061066953
1265,20514370,MANDARI,4,205143,22.9218454074,90.9006278457
1266,40447135,MANDERBARI,4,404471,23.309529799,88.9382245353
1267,40413847,MANGALKOT,4,404138,22.8717946168,89.2647011851
1268,55271776,MANGALPUR,4,552717,25.736186272,88.5375169402
1269,50811063,MANIGRAM,4,508110,24.2114173226,88.7760626717
1270,20466763,MANIKCHHARI,4,204667,22.8360120844,91.8282632235
1271,40416199,PAURASHAVA,4,404161,23.0252085213,89.2355281917
1272,30685299,PAURASHAVA,4,306852,24.1357931797,90.7027414236
1273,40448037,FAZILPUR,4,404480,23.6614590495,89.2702303502
1274,55326766,MANOHARPUR,4,553267,25.2600028,89.4895751145
1275,50885056,MANSUR NAGAR,4,508850,24.7498273169,89.7441703407
1276,60588031,MANSURNAGAR,4,605880,24.5140612654,91.8266174365
1277,55772580,MAREA BAMANHAT,4,557725,26.2325947391,88.647860051
1278,20157034,MARIAMNAGAR,4,201570,22.4528874019,92.0745612697
1279,30686450,MARJAL,4,306864,24.0295648234,90.840466619
1280,20466547,MASCHHARI,4,204665,22.9860871505,91.9976705417
1281,45612244,MASHAKHALI,4,456122,24.3896996911,90.5079174546
1282,45724761,MASHKA,4,457247,24.6679418667,90.8003678135
1283,50647947,MASIDPUR,4,506479,24.9874126162,88.6138609328
1284,30548763,MATBARER CHAR,4,305487,23.412999899,90.1610436258
1285,20195476,MATHABHANGA,4,201954,23.6481415201,90.7744223167
1286,10795860,MATHBARIA,4,107958,22.3082086953,89.9617046675
1287,40503961,MATHURAPUR,4,405039,24.0371789298,88.8264418857
1288,50102785,MATHURAPUR,4,501027,24.5775880984,89.5503821323
1289,10797642,MATIBHANGA,4,107976,22.7842781327,89.9336864162
1290,50647551,MATINDHAR,4,506475,25.0153926918,88.6652910376
1291,20467059,MATIRANGA,4,204670,23.0350350323,91.856677721
1292,40574763,MATMURA,4,405747,23.8968722075,88.8413829601
1293,30827365,MAURAT,4,308273,23.7437683819,89.4174677139
1294,55855883,MAYENPUR,4,558558,25.5957966421,89.1741337595
1295,45727455,MEDNI,4,457274,24.925801902,90.7425649936
1296,30295663,MEGCHAMI,4,302956,23.5729504723,89.5767252817
1297,20126382,MEHARI,4,201263,23.7732614542,91.0739903038
2185,45618831201,BHALKI,5,45618831,,
1299,20750770,MIR WARISHPUR,4,207507,22.96534687,91.0871264651
1300,60360547,MIRPUR,4,603605,24.2805914561,91.5165794593
1301,60904747,MIRPUR,4,609047,24.7876335528,91.6443816633
1302,20155359,MIRSHARAI,4,201553,22.790071508,91.5669492353
1303,30686454,MIRZANAGAR,4,306864,23.9528509395,90.8105009481
1304,30933880,MIRZAPUR,4,309338,24.507896455,89.9191039419
1305,40448063,MIRZAPUR,4,404480,23.6748644172,89.15201286
1306,50108866,MIRZAPUR,4,501088,24.6185546405,89.417722543
1307,10786659,MITHAGANJ,4,107866,21.930078829,90.2151709801
1308,40015859,MITHAKHALI,4,400158,22.4782431253,89.6804319059
1309,20155365,MITHANALA,4,201553,22.7818274469,91.5239394503
1310,30827651,MIZANPUR,4,308276,23.7852120321,89.6322724501
1311,45617255,MOAZZEMPUR,4,456172,24.5632079404,90.6161834699
1312,55495276,MOGALBACHHA,4,554952,25.7836438712,89.6662205926
1313,55525565,MOGALHAT,4,555255,25.9611750799,89.4605574009
1314,50384776,MOHAMMADABAD,4,503847,25.0935790724,89.0154985385
1315,20751038,MOHAMMADPUR,4,207510,23.0953340653,91.0031617184
1316,30866962,MOHAMMAD PUR,4,308669,23.2204705369,90.2632930364
1317,20193673,MOHAMMADPUR PASCHIM,4,201936,23.4871778101,90.8101522429
1318,55490876,MOHANGANJ,4,554908,25.421710191,89.7389070474
1319,20137938,MOHANPUR,4,201379,23.4079316962,90.5844827395
1320,55271234,MOHANPUR,4,552712,25.9324521444,88.6929525483
1321,10044771,MOKAMIA,4,100447,22.3669963889,90.129653374
1322,20198773,MOKRABPUR,4,201987,23.1890848617,91.1897333932
1323,10427336,MOLLAHAT,4,104273,22.5412761018,90.2366930918
1324,30595657,MOLLAHKANDI,4,305956,23.4674763222,90.5160171692
1325,60913165,MOLLARGAON,4,609131,24.8821082231,91.8247944779
1326,55277760,MOMINPUR,4,552777,25.6350006725,88.8419229617
1327,40016099,PAURASHAVA,4,400160,22.4545183076,89.8595019611
1328,50694167,MOSHINDA,4,506941,24.3548009479,89.2851725085
1329,50762270,MOTHURAPUR,4,507622,24.2112439862,89.2798514041
1330,30670451,MUGRA PARA,4,306704,23.635170788,90.5726814424
1331,30355899,PAURASHAVA,4,303558,23.3185735226,89.8667960806
1332,30866569,MUKTARER CHAR,4,308665,23.3044168714,90.3839515975
1333,55271023,MUKUNDAPUR,4,552710,25.3634633343,88.9604184496
1334,40657661,MULIA,4,406576,23.1482828704,89.4654433092
1335,30484585,MUMURDIA,4,304845,24.2854200057,90.8272874857
1336,50819400,MUNDUMALA PAURASHAVA,4,508194,24.602837622,88.4793421721
1337,50761919,MUNOTOSH,4,507619,24.2220727328,89.3538270441
1338,60585657,MUNSHI BAZAR,4,605856,24.3964670096,91.8586721506
1339,60588042,MUNSHI BAZAR,4,605880,24.5856066286,91.8959495421
1340,40878663,MUNSHIGANJ,4,408786,22.23613703,89.1492272001
1341,20193171,MUNSHIRHAT,4,201931,23.2355778223,91.2725364099
1342,20158657,MURADPUR,4,201586,22.5997686551,91.6358112108
1343,60366881,MURIAUK,4,603668,24.2655033378,91.2797545405
1344,55272154,MUSHIDHAT,4,552721,25.803210619,88.4672041222
1345,30545471,MUSTAFAPUR,4,305454,23.1347940463,90.1318753225
1346,45724767,MUZAFFARPUR,4,457247,24.6203897578,90.8891486308
1347,30544075,NABAGRAM,4,305440,23.0690938349,90.1259878222
1348,20758085,NABIPUR,4,207580,22.8943991449,91.2187753045
1349,50705657,NACHOLE,4,507056,24.7373962459,88.440106033
1350,40879071,NAGARGHATA,4,408790,22.7565120863,89.1226698539
1351,30937673,NAGARPUR,4,309376,24.0352864261,89.8755639065
1352,40180794,NAGDAHA,4,401807,23.666164429,88.9380475162
1353,30863659,NAGER PARA,4,308636,23.080450984,90.3688497925
1354,40559552,NAKOL,4,405595,23.5423300975,89.4905136224
1355,10063271,NALCHIRA,4,100632,22.9535421928,90.2741175116
1356,20753666,NALCHIRA,4,207536,22.377603509,91.1124631215
1357,40655279,NALDI,4,406552,23.2680635193,89.5330828018
1358,45897051,NALITABARI,4,458970,25.1072509677,90.2238353786
1359,10060774,NALUA,4,100607,22.4881450126,90.4126132938
1360,45617271,NANDAIL,4,456172,24.5994945059,90.6761455845
1361,50106773,NANDIGRAM,4,501067,24.6274309875,89.2210678436
1362,40448010,ABAIPUR,4,404480,23.5974807902,89.3207650479
1363,40503911,ADABARIA,4,405039,23.9858570207,88.781335506
1364,50640610,ADHAIPUR,4,506406,24.9605847005,88.936228014
1365,50385838,AHMMEDABAD,4,503858,25.0601128335,89.1575344136
1366,50640310,AHSANGANJ,4,506403,24.6111912303,88.9463364673
1367,20842115,AIBA CHHARA,4,208421,22.7793111761,92.429745385
1368,50648617,AIHAI,4,506486,25.1804871049,88.4983831478
1369,40477513,AIJGANTI,4,404775,22.8387284831,89.5684762367
1370,30936613,AJGANA,4,309366,24.1300408798,90.1927698738
1371,60360213,AJMIRIGANJ,4,603602,24.5432491396,91.254407518
1372,60360299,PAURASHAVA,4,603602,24.5491180529,91.2380497815
1373,40479413,AJUGARA,4,404794,22.853150045,89.6323191118
1374,50647512,AKBARPUR,4,506475,25.0625885135,88.6540505677
2186,45618831352,DHAKUA,5,45618831,,
1375,55949414,AKCHA,4,559494,26.0884259126,88.4408274103
1376,60587413,AKHAILKURA,4,605874,24.562958239,91.7411928438
1377,55949413,AKHANAGAR,4,559494,26.1262026707,88.3797972996
1378,20120299,PAURASHAVA,4,201202,23.8777270608,91.2086669913
1379,60912010,ALANKARI,4,609120,24.8453908366,91.7826334758
1380,60914110,ALIRGAON,4,609141,25.0814655012,92.0491405841
1381,40475310,AMADI,4,404753,22.4838160513,89.3048903606
1382,55273023,AMARPUR,4,552730,25.6136249852,88.8012691745
1383,50642831,ARANAGAR,4,506428,25.0907817503,88.8412720265
1384,50694417,ARBAB,4,506944,24.2225880604,88.9376090386
1385,50765516,ATAIKOLA,4,507655,24.0333726701,89.3617489858
1386,10042817,AYLA PATAKATA,4,100428,22.187777749,90.2073324152
1387,20840799,PAURASHAVA,4,208407,23.1483689514,92.2136062519
1388,45897030,BAGHBER,4,458970,25.1034736846,90.16702252
1389,40410999,PAURASHAVA,4,404109,23.2184765531,89.3426875945
1390,30938513,BAHERATAIL,4,309385,24.3269447889,90.1064356192
1391,45615227,BAERA (KEWATKHALI),4,456152,24.708321896,90.4337865168
1392,30480699,PAURASHAVA,4,304806,24.208463034,90.9369506719
1393,30562821,BALARA,4,305628,23.7510200801,90.0100788791
1394,40011419,BARA BARIA,4,400114,22.8623976631,89.8578170832
1395,20224911,BARA MAHESKHALI,4,202249,21.5452524531,91.9279954595
1396,45612211,BARABARIA,4,456122,24.5030637056,90.5038440373
1397,20193690,BARAPARA,4,201936,23.5131268298,90.7751540983
1398,20466123,BARMACHHARI,4,204661,22.7196350855,91.9391132729
1399,20514314,BASIKPUR,4,205143,23.0036009789,90.8902974265
1400,10785242,BETAGI SANKIPURA,4,107852,22.3257088587,90.5197983042
1401,20842519,BETBUNIA,4,208425,22.5224975477,91.9944978505
1402,50811299,BHAWABANIGONJ PAURASHAVA,4,508112,24.5847129676,88.8259102513
1403,10427313,BHARABPASHA,4,104273,22.6532916758,90.2452903301
1404,20845827,BHASANYA ADAM,4,208458,22.864939494,92.2605337838
1405,45612420,BHUBANKURA,4,456124,25.1740647697,90.2942515403
1406,45721825,CHANDIGARH,4,457218,25.1018650644,90.7403422634
1407,20191544,CHANDLA,4,201915,23.6656055885,91.1003329218
1408,20157017,CHANDRAGHONA KADAMTALI,4,201570,22.4630998486,92.1117400828
1409,20758529,CHAR AMANULLAH,4,207585,22.6465551315,91.1520963408
1410,20515852,CHAR PATA,4,205158,23.0633975,90.7680103727
1411,20517365,CHAR PORAGACHA,4,205173,22.6829859651,90.9924269588
1412,20154725,CHARAMBA,4,201547,22.0128654121,92.1679031112
1413,20224918,CHHOTAMOHES KHALI,4,202249,21.5449468273,91.9667700064
1414,40016029,CHINGRAKHALI,4,400160,22.5154849862,89.9213291191
1415,20154732,CHUNATI,4,201547,21.9419995978,92.0932433671
1416,20196751,DAKSHIN DURGAPUR,4,201967,23.4561051525,91.1518469828
1417,20190994,DAKSHIN SHILMURI,4,201909,23.3498778864,91.1034120093
1418,40559521,DARIAPUR,4,405595,23.6176552642,89.4595625733
1419,30932817,DEULABARI,4,309328,24.5357241463,89.9870684368
1420,20156130,DHALGHAT,4,201561,22.3338490329,91.9609423722
1421,40448018,DHALHARA CHANDRA,4,404480,23.6623545785,89.3320115443
1422,30261899,JOYPARA PAURASHAVA,4,302618,23.6225476299,90.127853109
1423,50768319,DULAI,4,507683,23.9402795995,89.4971659412
1424,20195422,DULAL PUR,4,201954,23.714708457,90.8124732746
1425,20191530,DULALPUR,4,201915,23.615124615,91.074701676
1426,40013431,FAKIRHAT,4,400134,22.7533202231,89.7125639531
1427,20190944,GALIMPUR,4,201909,23.3231967443,91.0556769838
1428,50886721,GARADAHA,4,508867,24.2329679512,89.5814357697
1429,55274338,GHORAGHAT,4,552743,25.2468627821,89.2168322571
1430,30353221,GOBRA,4,303532,22.9558045309,89.820933955
1431,20514350,HAJIR PARA,4,205143,22.9399048173,90.9488773189
1432,20157840,HARISPUR,4,201578,22.526160184,91.4231028367
1433,45893717,HATIBANDHA MALIJHIKANDA,4,458937,25.1261078285,90.0535169288
1434,40874331,HELATALA,4,408743,22.8840744449,89.0225334074
1435,10066271,JANGALIA,4,100662,22.7548773445,90.4986711504
1436,20198145,JATRAPUR,4,201981,23.6722377466,90.9392015302
1437,50691547,JOARI,4,506915,24.3090171872,89.0642850223
1438,20844757,JURAI CHHARI,4,208447,22.651406051,92.4268898158
1439,20758047,KABILPUR,4,207580,22.962434955,91.2082539545
1440,20754799,KABIRHAT PAURASHAVA,4,207547,22.8250029325,91.2004753116
1441,20224959,KALARMARCHHARA,4,202249,21.6817705883,91.9130924275
1442,60588338,KALIGHAT,4,605883,24.3009011847,91.7498663857
1443,20193152,KALIKAPUR,4,201931,23.3103616098,91.2846044731
1444,30545441,KALIKAPUR,4,305454,23.2296828825,90.1937684827
1445,50640352,KALIKAPUR,4,506403,24.6646107835,88.9056742046
1446,50644733,KALIKAPUR,4,506447,24.6715741274,88.709328478
1447,30263834,KALINDI,4,302638,23.7012710749,90.3665164454
1448,20150844,KALIPUR,4,201508,22.0736085584,91.9404168907
1449,20196768,KALIR BAZAR (DAKSHIN),4,201967,23.4346779906,91.0994312673
2401,50695558385,EKDALA,5,50695558,,
1450,20196773,KALIR BAZAR (UTTAR),4,201967,23.4612929105,91.0938154797
1451,20151885,KANCHANABAD,4,201518,22.2346697751,92.054480932
1452,20758066,KESHARPAR,4,207580,23.0400100511,91.1826848445
1453,40471797,NALIAN RANGE,4,404717,22.3053645476,89.5326985195
1454,20221669,KONAKHALI,4,202216,21.7856793372,91.9761953993
1455,40872531,KULIA,4,408725,22.6360436496,89.0455807519
1456,45392963,KULKANDI,4,453929,25.1354699689,89.6996403655
1457,20224962,KUTUBJHOM,4,202249,21.5242181394,91.9059195668
1458,20191556,MADHABPUR,4,201915,23.70136947,91.078479431
1459,20155371,MAGHADIA,4,201553,22.7664389813,91.5447092151
1460,30261831,MAHMUDPUR,4,302618,23.589526011,90.0794779357
1461,30291071,MANIKDAHA,4,302910,23.4506859138,89.9708553202
1462,45390759,MERUR CHAR,4,453907,25.1618755347,89.821381425
1463,20305147,MIRZANAGAR,4,203051,23.2414137195,91.4217106198
1464,20126394,MULGRAM,4,201263,23.8351699921,91.1022059294
1465,20198799,NANGALKOT PAURASHAVA,4,201987,23.1675021681,91.1932858891
1466,55731266,NAOTARA,4,557312,26.1216703591,88.9816570189
1467,30934773,NARANDIA,4,309347,24.3944676401,89.9129310674
1468,45728387,NARANDIA,4,457283,24.8659125068,90.6315883792
1469,20199477,NARAYANDIA,4,201994,23.5700243715,90.8256990747
1470,30861469,NARAYANPUR,4,308614,23.1786886717,90.4659317337
1471,20750749,NAROTTAMPUR,4,207507,22.9699238429,91.1171741733
1472,30820785,NARUA,4,308207,23.6509424023,89.4692973091
1473,30263685,NASIRABAD,4,302636,23.7680136952,90.467903897
1474,50100667,NASRATPUR,4,501006,24.8364220577,89.0751258237
1475,20758377,NATESHWAR,4,207583,22.9920546052,91.1294325904
1476,40447153,NATIMA,4,404471,23.3118141091,88.8878544248
1477,20309476,NAWABPUR,4,203094,22.9176072471,91.4475301664
1478,30261863,NAYABARI,4,302618,23.6465199602,90.0335580531
1479,55497752,NAZIMKHAN,4,554977,25.7391204134,89.5468973663
1480,10797652,NAZIRPUR,4,107976,22.738428047,89.9577167017
1481,55948679,NEKMARAD,4,559486,25.9779668967,88.2554814497
1482,10798795,NESARABAD (SWARUPKATI),4,107987,22.7557383404,90.1200074728
1483,30484277,NIAMATPUR,4,304842,24.4759988185,90.9335095182
1484,20758775,NIAZPUR,4,207587,22.8676339614,91.1410688173
1485,30931981,NIKRAIL,4,309319,24.4210605771,89.7911504865
1486,20134771,NILKAMAL,4,201347,23.0749514394,90.582670933
1487,50762286,NIMAICHARA,4,507622,24.2787657274,89.3479146903
1488,50885069,NISHCHINTAPUR,4,508850,24.6440262198,89.7590198687
1489,50102064,NISHINDARA,4,501020,24.8743543908,89.3593029264
1490,40419069,NIZAMPUR,4,404190,23.1166202227,88.9825168408
1491,30353264,NIZRA,4,303532,23.0941627522,89.8319860547
1492,20516566,NOAGAON,4,205165,23.1452498447,90.8896448158
1493,40655287,NOAGRAM,4,406552,23.2351074062,89.5921598224
1494,20758780,NOAKHALI,4,207587,22.7574542725,91.1242224653
1495,30295673,NOAPARA,4,302956,23.5035288682,89.6112012203
1496,60367186,NOAPARA,4,603671,24.1768136137,91.3654857847
1497,55852777,NOHALI,4,558527,25.9413847478,89.1440087184
1498,55496175,NOONKHAWA,4,554961,25.8796135326,89.7732949687
1499,20515835,NORTH CHAR BANGSHI,4,205158,22.9666742892,90.691308781
1500,45897069,NUNNI,4,458970,25.1582909521,90.1415697835
1501,30686053,NURULLA PUR,4,306860,23.828694199,90.6598442421
1502,10092595,OSMANGANJ,4,100925,22.2330560008,90.7256527355
1503,30485459,OSMANPUR,4,304854,24.1685052101,90.9323907483
1504,50765599,PAURASHAVA,4,507655,24.0109016037,89.2418451801
1505,50819470,PACHANDAR,4,508194,24.6071443799,88.5212686443
1506,20134960,PASCHIM HATILA UNION,4,201349,23.3005484003,90.8620975624
1507,40878679,PADMA PUKUR,4,408786,22.3257708848,89.2394387952
1508,20157043,PADUA,4,201570,22.3546854386,92.1024764607
1509,55328876,PADUMSAHAR,4,553288,25.2039584934,89.5434483719
1510,40652879,PAHARDANGA,4,406528,22.9804122984,89.7726767277
1511,20198167,PAHARPUR,4,201981,23.5603260553,90.8956035725
1512,60362657,PAIK PARA,4,603626,24.1684715685,91.4599522653
1513,30353269,PAIKKANDI,4,303532,23.03967902,89.7689932998
1514,60904757,PAILGAON,4,609047,24.6883290965,91.5619629059
1515,20039138,PAINDU,4,200391,22.1199969416,92.4227465811
1516,40507988,PAITKABARI,4,405079,23.8007183716,89.0186868015
1517,50109581,PAKULLA,4,501095,24.9793242762,89.5508919114
1518,30487976,PAKUNDIA,4,304879,24.3154933111,90.6698663977
1519,55277777,PALASHBARI,4,552777,25.6226076514,88.966098854
1520,40556673,PALASHBARIA,4,405566,23.3425363925,89.5834403892
1521,55520277,PALASHI,4,555202,25.917248529,89.3060366944
1522,30686474,PALASHTALI,4,306864,23.9835829773,90.8418997632
1523,45392979,PALBANDHA,4,453929,25.1049444744,89.8012217924
1524,55274357,PALSA,4,552743,25.2782901948,89.1716667029
1525,55773457,PAMULI,4,557734,26.1370096263,88.6766415073
2510,20197313589,MANDARI,5,20197313,,
1526,30548773,PANCH CHAR,4,305487,23.3795708298,90.1632734498
1527,55525583,PANCHAGRAM,4,555255,25.8358801314,89.5081084629
1528,30686089,PANCHDONA,4,306860,23.9025042515,90.6525320181
1529,20302964,PANCHGACHHIYA,4,203029,23.0169650228,91.3441403559
1530,20196790,PANCHTHUBI,4,201967,23.4874037063,91.2163789187
1531,30290352,PANCHURIA,4,302903,23.3604783914,89.6224176244
1532,50886176,PANGASHI,4,508861,24.475550447,89.5894559342
1533,50690957,PANKA,4,506909,24.2856299655,88.9202224296
1534,40471769,PANKHALI,4,404717,22.6145012533,89.4874834224
1535,10785778,PANPATTY,4,107857,22.1130031578,90.443108492
1536,50646963,PARAIL,4,506469,24.7628446063,88.5066430804
1537,30291875,PARAMESHWARDI,4,302918,23.3600437125,89.7584784114
1538,45615288,PARANGANJ,4,456152,24.8350793436,90.3290472075
1539,50644781,PARANPUR,4,506447,24.8082183878,88.6555693068
1540,50761979,PARBHANGURIA,4,507619,24.1746931419,89.3858097869
1541,10799043,PARERHAT,4,107990,22.5176910341,89.9631103815
1542,55940884,PARIA,4,559408,26.1600517055,88.258514723
1543,20305199,PARSHURAM PAURASHAVA,4,203051,23.2108967624,91.4550304665
1544,30354361,PARULIA,4,303543,23.22821584,89.7992512398
1545,20134511,PASCHIM BALUTHUPA,4,201345,23.2006383659,90.7288755309
1546,60902789,PASCHIM BIRGAON,4,609027,24.8648374648,91.3962738966
1547,20134523,PASCHIM CHAR DUKHIA,4,201345,23.0785318143,90.6984814991
1548,20137994,PASCHIM FATEHPUR,4,201379,23.3851145226,90.6631411164
1549,60910860,PASCHIM GAURIPUR,4,609108,24.6982617469,91.8635421736
1550,20157494,PASCHIM GUZARA,4,201574,22.4608191624,91.8893779634
1551,60914142,PASCHIM JAFLONG,4,609141,25.140082836,91.9555852725
1552,60915966,PASCHIM LAKSHMIP RASAD,4,609159,25.0646131785,92.2584921018
1553,20198163,PASCHIM NABIPUR,4,201981,23.6388410989,90.9502200837
1554,20135894,PASCHIM SAHADEBPUR,4,201358,23.3757984469,90.8210211446
1555,20123374,PASCHIM TALSAHAR,4,201233,24.0278636363,91.045669727
1556,60904766,PATALI,4,609047,24.801415514,91.5866979284
1557,60585666,PATANUSHAR,4,605856,24.4290207251,91.8811679349
1558,20513387,PATARIR HAT,4,205133,22.7255508965,90.8629464723
1559,30359176,PATGATI,4,303591,22.9039322613,89.8947153023
1560,20301476,PATHANNAGAR,4,203014,23.0406456433,91.4625089404
1561,55490676,PATHARDUBI,4,554906,26.1536936293,89.6266372191
1562,50647577,PATICHARA,4,506475,25.0845812031,88.7865285963
1563,10424379,PATKELGHATA,4,104243,22.3768507281,90.0451344704
1564,30827380,PATTA,4,308273,23.7169557675,89.3955954379
1565,10042899,PAURASHAVA,4,100428,22.1496319411,90.1302519256
1566,10063299,PAURASHAVA,4,100632,22.9705760831,90.2267974219
1567,10091899,PAURASHAVA,4,100918,22.6806368636,90.6484678046
1568,10092999,PAURASHAVA,4,100929,22.6001867155,90.7456908404
1569,10427399,PAURASHAVA,4,104273,22.6385449056,90.2850857512
1570,10783899,PAURASHAVA,4,107838,22.4129061369,90.5298169213
1571,10786699,PAURASHAVA,4,107866,21.9935359441,90.2266739327
1572,50108599,PAURASHAVA,4,501085,24.8155065125,89.3719013173
1573,55271299,PAURASHAVA,4,552712,25.8527560416,88.6487789892
1574,55273899,PAURASHAVA,4,552738,25.4897319316,88.9626493939
1575,55274799,PAURASHAVA,4,552747,25.2805337595,89.0359856569
1576,55499499,PAURASHAVA,4,554994,25.6782262451,89.5954189064
1577,55525599,PAURASHAVA,4,555255,25.9111397538,89.4518383587
1578,55731599,PAURASHAVA,4,557315,26.0943598253,88.8235855701
1579,55854299,PAURASHAVA,4,558542,25.8051092639,89.3320452153
1580,55948299,PAURASHAVA,4,559482,25.8649405162,88.3554485152
1581,40410442,PAYRA,4,404104,22.9593803651,89.383562104
1582,30545483,PEARPUR,4,305454,23.1796305703,90.1436625243
1583,20464975,PERACHHARA,4,204649,23.1367065666,92.00130149
1584,40183123,PERKRISHNAPUR MADNA,4,401831,23.5120738004,88.7533288936
1585,55491840,PHULBARI,4,554918,25.9470566664,89.5695588009
1586,10042857,PHULJHURY,4,100428,22.2206311498,90.1410563701
1587,45618158,PHULPUR,4,456181,24.9824284589,90.3753340342
1588,40476976,PHULTALA,4,404769,22.9877511975,89.447712015
1589,45398563,PINGNA,4,453985,24.606325062,89.8032817065
1590,30355163,PINJURI,4,303551,22.9551483619,89.9629275988
1591,20191872,PIR JATRAPUR,4,201918,23.551227601,91.1015943447
1592,55857669,PIRGANJ,4,558576,25.4410894245,89.2982373766
1593,40578795,PIROJPUR,4,405787,23.7134383265,88.7296328954
1594,20222483,POKKHALI,4,202224,21.5709220756,92.0166401965
1595,10424085,PONABALIA,4,104240,22.6147210973,90.199674184
1596,45611673,PORA KANDULIA,4,456116,25.0603108252,90.5760889912
1597,30939590,PORABARI,4,309395,24.2135011178,89.8686283424
1598,50886773,POTAJIA,4,508867,24.1504847305,89.5619822248
1599,40870477,PRATAP NAGAR,4,408704,22.3826118225,89.2253485206
1600,20150863,PUICHHARI,4,201508,21.9179756225,91.9879539166
1601,30354367,PUISUR,4,303543,23.1442557865,89.8490578435
1602,50761673,PURAN BHARENGA,4,507616,23.9448091009,89.6711464806
1603,50384785,PURANAPAIL,4,503847,25.1289928778,89.0570459326
1604,30480291,PURBA AUSTAGRAM,4,304802,24.322141312,91.1175375147
1605,20198113,PURBA BANGARA,4,201981,23.7208401626,90.9837318484
1606,20302569,PURBA CHANDRAPUR,4,203025,22.9750767815,91.2891503046
1607,20758790,PURBA CHAR MATUA,4,207587,22.8284114385,90.9672072239
1608,55731285,PURBA CHHATNAI,4,557312,26.2489146829,88.9293041811
1609,10797621,PURBA DEULBARIDOBRA,4,107976,22.8219335637,90.0162896951
1610,60915976,PURBA DIGHIRPAR,4,609159,24.9869612825,92.3333164411
1611,20157431,PURBA GUZARA,4,201574,22.4795546391,91.9154138599
1612,60583567,PURBA JURI,4,605835,24.5846567769,92.1879915654
1613,20198158,PURBA NABIPUR,4,201981,23.6517446592,90.9749924069
1614,20120468,PURBA RUPASDI,4,201204,23.7479874208,90.8736001255
1615,20134589,PURBA SUBIDPUR,4,201345,23.1989572554,90.8287265448
1616,20129094,PURBABAGH,4,201290,24.1356688552,91.2294306742
1617,45728399,PAURASHAVA,4,457283,24.9491311655,90.6024369839
1618,50889458,PURNIMAGANTI,4,508894,24.3235622327,89.5181825428
1619,30564694,PUTAIL,4,305646,23.802641886,90.0225787591
1620,60360559,PUTIJURI,4,603605,24.3891531084,91.5858855705
1621,40419077,PUTKHALI,4,404190,23.0009169007,88.9012134432
1622,30355171,RADHAGANJ,4,303551,23.0330584401,90.0350643466
1623,45612089,RADHAKANAI,4,456120,24.5895141486,90.317448352
1624,20301485,RADHANAGAR,4,203014,23.0080180896,91.5149500959
1625,50703773,RADHANAGAR,4,507037,24.9138909651,88.3830726157
1626,55850382,RADHANAGAR,4,558503,25.7252325082,88.997352532
1627,60902966,RAFINAGAR,4,609029,24.8275510455,91.2308027157
1628,40555788,RAGHAB DAIR,4,405557,23.4526320441,89.3347459638
1629,30353273,RAGHUNATHPUR,4,303532,22.9850602108,89.8695057205
1630,40473061,RAGHUNATHPUR,4,404730,22.8780013534,89.4172228907
1631,20229447,RAJA PALONG,4,202294,21.2483341323,92.1467725706
1632,30338666,RAJABARI,4,303386,24.1170913386,90.4817956614
1633,55949479,RAJAGAON,4,559494,26.1609040038,88.4485057646
1634,20225689,RAJAKHALI,4,202256,21.8585947231,91.9378218845
1635,20191875,RAJAPUR,4,201918,23.5882547123,91.1488539087
1636,20031447,RAJBILA,4,200314,22.3050394241,92.2256617694
1637,10060279,RAJIHER,4,100602,23.015689906,90.1601735289
1638,30866594,RAJNAGAR,4,308665,23.3011466601,90.3401798726
1639,55323067,RAKHAL BURUZ,4,553230,25.1574456975,89.4514397183
1640,30861477,RAMBHADRAPUR,4,308614,23.2149478533,90.4622331439
1641,45897086,RAMCHANDRAKURA MANDALIA,4,458970,25.1717528012,90.2311643928
1642,40016089,RAMCHANDRAPUR,4,400160,22.5524991729,89.9075246186
1643,55275647,RAMCHANDRAPUR,4,552756,25.7655559156,88.6267351328
1644,50104081,RAMESHWARPUR,4,501040,24.9234708524,89.4266129122
1645,20468076,RAMGARH,4,204680,22.9784408549,91.7576546821
1646,45612372,RAMGOPALPUR,4,456123,24.7132101778,90.5578609076
1647,55329163,RAMJIBAN,4,553291,25.5078831136,89.5145034802
1648,30827680,RAMKANTAPUR,4,308276,23.7337766767,89.6224179304
1649,40503988,RAMKRISHNAPUR,4,405039,24.0808157161,88.7503564201
1650,50889465,RAMKRISHNAPUR,4,508894,24.3969376196,89.4531827474
1651,20302577,RAMNAGAR,4,203025,22.9451321947,91.2773554882
1652,55736475,RAMNAGAR,4,557364,25.9699788194,88.9029731913
1653,55850388,RAMNATHPUR,4,558503,25.6642112419,89.0079481114
1654,60912084,RAMPASHA,4,609120,24.8446840167,91.7282723583
1655,20121383,RAMRAIL,4,201213,23.9262920877,91.1002196225
1656,30355179,RAMSHIL,4,303551,23.0242857373,90.0973287642
1657,20848799,PAURASHAVA,4,208487,22.6342482896,92.170758296
1658,10060794,RANGASREE,4,100607,22.5515390226,90.3116493976
1659,10785284,RANGOPALDI,4,107852,22.1885803418,90.5359842222
1660,20157077,RANGUNIA,4,201570,22.4706910273,92.092403346
1661,55855894,RANI PUKUR,4,558558,25.638165556,89.2312892847
1662,45899071,RANI SHIMUL,4,458990,25.2264183786,89.9704769243
1663,60904776,RANIGANJ,4,609047,24.7057552832,91.5197453033
1664,60362666,RANIGAON,4,603626,24.1932548636,91.5970629519
